{"version":1,"source":"OurAirports","count":5013,"hubs":["AGGH","AYNZ","AYPY","BGGH","BIAR","BIKF","BKPR","CYEG","CYHZ","CYLW","CYOW","CYQB","CYUL","CYVR","CYWG","CYXE","CYYC","CYYJ","CYYT","CYYZ","DAAE","DAAG","DAAJ","DAAT","DAAV","DABB","DABC","DABT","DAOI","DAON","DAOO","DAUB","DBBB","DFFD","DFOO","DGAA","DGLE","DGSI","DIAP","DNAA","DNAS","DNBC","DNEN","DNIL","DNKA","DNKN","DNMA","DNMM","DNPO","DNSO","DRRN","DTTA","DTTJ","DXXX","EBBR","EBCI","EBOS","EDDB","EDDC","EDDE","EDDF","EDDG","EDDH","EDDK","EDDL","EDDM","EDDN","EDDP","EDDS","EDDV","EDDW","EDFH","EDJA","EDLP","EDLV","EDLW","EDNY","EDSB","EDVK","EETN","EFHK","EFIV","EFKT","EFKU","EFLP","EFMA","EFOU","EFRO","EFTP","EFTU","EFVA","EGAA","EGBB","EGCC","EGFF","EGGD","EGGP","EGGW","EGKK","EGLL","EGNM","EGNS","EGNT","EGNX","EGPD","EGPF","EGPH","EGPK","EGSS","EGYP","EHAM","EHBK","EHEH","EHGG","EHRD","EICK","EIDW","EIKN","EINN","EKAH","EKBI","EKCH","EKOD","EKVG","EKYT","ELLX","ENAL","ENBO","ENBR","ENCN","ENEV","ENGM","ENTC","ENTO","ENVA","ENZV","EPGD","EPKK","EPKT","EPLB","EPLL","EPMO","EPPO","EPRZ","EPSC","EPWA","EPWR","ESGG","ESKN","ESKS","ESMS","ESNQ","ESNU","ESOW","ESPA","ESSA","ESSL","ESSV","EVRA","EYKA","EYPA","EYVI","FABL","FACT","FAEL","FAGG","FAKM","FAKN","FALA","FALE","FAOR","FAPE","FAPP","FBKE","FBMN","FBPM","FBSK","FCBB","FCPP","FDSK","FEFF","FGBT","FGCO","FGSL","FIMP","FKKD","FKKR","FKYS","FLHN","FLKK","FLMF","FLSK","FMCH","FMCZ","FMEE","FMEP","FMMI","FMMT","FMNM","FMNN","FNBJ","FNLU","FOOG","FOOL","FOON","FPST","FQBR","FQMA","FQNP","FQTT","FSIA","FTTJ","FVFA","FVJN","FVRG","FWCL","FWKI","FXMM","FYWB","FYWH","FZAA","FZIC","FZNA","FZQA","GABS","GATB","GBYD","GCFV","GCLP","GCRR","GCTS","GCXO","GFLL","GGOV","GLRB","GMAD","GMAZ","GMFF","GMFO","GMMD","GMME","GMMH","GMML","GMMN","GMMW","GMMX","GMMZ","GMTN","GMTT","GOBD","GOOY","GQNO","GQPP","GUCY","GVAC","GVBA","GVNP","GVSV","HAAB","HADR","HAJJ","HALA","HBBA","HCMF","HCMH","HCMM","HDAM","HEAL","HEAR","HEAT","HEAX","HECA","HEGN","HELX","HEMA","HEMM","HEPS","HESG","HESH","HESN","HESX","HJJJ","HKEL","HKJK","HKKI","HKMO","HLLB","HLLM","HLLQ","HRYR","HSPN","HSSK","HTDA","HTKJ","HTMW","HTZA","HUEN","KABQ","KALB","KATL","KAUS","KBDL","KBHM","KBNA","KBOI","KBOS","KBUF","KBUR","KBWI","KCHS","KCLE","KCLT","KCMH","KCOS","KCVG","KDAL","KDCA","KDEN","KDFW","KDSM","KDTW","KELP","KEWR","KFAT","KFLL","KGEG","KGRR","KGSO","KHOU","KIAD","KIAH","KIND","KJAX","KJFK","KLAS","KLAX","KLGA","KLGB","KMCI","KMCO","KMDW","KMEM","KMIA","KMKE","KMSP","KMSY","KMYR","KOAK","KOKC","KOMA","KONT","KORD","KORF","KPBI","KPDX","KPHL","KPHX","KPIE","KPIT","KPNS","KPSP","KPVD","KPWM","KRDU","KRIC","KRNO","KROC","KRSW","KSAN","KSAT","KSAV","KSBD","KSDF","KSEA","KSFB","KSFO","KSJC","KSLC","KSMF","KSNA","KSRQ","KSTL","KSYR","KTPA","KTUL","KTUS","KTYS","LATI","LBBG","LBPD","LBSF","LBWN","LCEN","LCLK","LCPH","LDDU","LDPL","LDRI","LDSP","LDZA","LDZD","LEAL","LEAS","LEBB","LEBL","LEGE","LEIB","LEMD","LEMG","LEMH","LEMI","LEPA","LERS","LEST","LEVC","LEZG","LEZL","LFBD","LFBO","LFKB","LFKF","LFLC","LFLL","LFML","LFMN","LFMT","LFOB","LFPB","LFPG","LFPO","LFQQ","LFRB","LFSB","LFST","LGAV","LGIR","LGKO","LGKR","LGKV","LGRP","LGSA","LGSR","LGTS","LHBP","LHDC","LHPP","LIBD","LIBP","LIBR","LICA","LICC","LICJ","LIEE","LIEO","LIMC","LIME","LIMF","LIMJ","LIML","LIPE","LIPH","LIPQ","LIPR","LIPX","LIPZ","LIRA","LIRF","LIRN","LIRP","LIRQ","LIRZ","LJLJ","LKCS","LKKV","LKMT","LKPD","LKPR","LLBG","LLER","LMML","LOWG","LOWI","LOWK","LOWL","LOWS","LOWW","LPFR","LPMA","LPPD","LPPR","LPPT","LQBK","LQMO","LQSA","LQTZ","LRBC","LRBS","LRBV","LRCK","LRCL"],"airports":[{"icao":"OMNK","name":"Sas Al Nakheel Air Base","latitude":24.44128,"longitude":54.51696,"elevation_ft":14,"type":"medium_airport","iso_country":"AE","municipality":"Sas Al Nakheel","iata_code":null,"scheduled_service":"no"},{"icao":"TAPB","name":"Burton-Nibbs International Airport","latitude":17.621194,"longitude":-61.798347,"elevation_ft":28,"type":"medium_airport","iso_country":"AG","municipality":"Codrington","iata_code":"BBQ","scheduled_service":"yes"},{"icao":"AGGH","name":"Honiara International Airport","latitude":-9.428,"longitude":160.054993,"elevation_ft":28,"type":"large_airport","iso_country":"SB","municipality":"Honiara","iata_code":"HIR","scheduled_service":"yes"},{"icao":"AGGM","name":"Munda Airport","latitude":-8.32797,"longitude":157.263,"elevation_ft":10,"type":"medium_airport","iso_country":"SB","municipality":"Munda","iata_code":"MUA","scheduled_service":"yes"},{"icao":"ANYN","name":"Nauru International Airport","latitude":-0.547893,"longitude":166.919525,"elevation_ft":22,"type":"medium_airport","iso_country":"NR","municipality":"Yaren","iata_code":"INU","scheduled_service":"yes"},{"icao":"AQBC","name":"Boulder Clay Runway","latitude":-74.739373,"longitude":164.03539,"elevation_ft":672,"type":"medium_airport","iso_country":"AQ","municipality":"Zucchelli Station","iata_code":null,"scheduled_service":"no"},{"icao":"ZBAL","name":"Alxa Left Banner Bayanhot Airport","latitude":38.748317,"longitude":105.58416,"elevation_ft":4560,"type":"medium_airport","iso_country":"CN","municipality":"Bayanhot","iata_code":"AXF","scheduled_service":"yes"},{"icao":"AYBA","name":"Baimuru Airport","latitude":-7.496955,"longitude":144.821756,"elevation_ft":27,"type":"medium_airport","iso_country":"PG","municipality":"Baimuru","iata_code":"VMU","scheduled_service":"yes"},{"icao":"AYBK","name":"Buka Airport","latitude":-5.422299,"longitude":154.672698,"elevation_ft":11,"type":"medium_airport","iso_country":"PG","municipality":"Buka Island","iata_code":"BUA","scheduled_service":"yes"},{"icao":"AYBM","name":"Balimo Airport","latitude":-8.05000019073,"longitude":142.932998657,"elevation_ft":51,"type":"medium_airport","iso_country":"PG","municipality":"Balimo","iata_code":"OPU","scheduled_service":"yes"},{"icao":"AYCH","name":"Chimbu Airport","latitude":-6.024290084838867,"longitude":144.9709930419922,"elevation_ft":4974,"type":"medium_airport","iso_country":"PG","municipality":"Kundiawa","iata_code":"CMU","scheduled_service":"yes"},{"icao":"AYDU","name":"Daru Airport","latitude":-9.08676,"longitude":143.207993,"elevation_ft":20,"type":"medium_airport","iso_country":"PG","municipality":"Daru","iata_code":"DAU","scheduled_service":"yes"},{"icao":"AYGA","name":"Goroka Airport","latitude":-6.081689834590001,"longitude":145.391998291,"elevation_ft":5282,"type":"medium_airport","iso_country":"PG","municipality":"Goronka","iata_code":"GKA","scheduled_service":"yes"},{"icao":"AYGN","name":"Gurney Airport","latitude":-10.3114995956,"longitude":150.333999634,"elevation_ft":88,"type":"medium_airport","iso_country":"PG","municipality":"Gurney","iata_code":"GUR","scheduled_service":"yes"},{"icao":"AYGR","name":"Girua Airport","latitude":-8.80453968048,"longitude":148.309005737,"elevation_ft":311,"type":"medium_airport","iso_country":"PG","municipality":"Popondetta","iata_code":"PNP","scheduled_service":"yes"},{"icao":"AYHK","name":"Hoskins Airport","latitude":-5.463846,"longitude":150.407327,"elevation_ft":66,"type":"medium_airport","iso_country":"PG","municipality":"Kimbe","iata_code":"HKN","scheduled_service":"yes"},{"icao":"AYKM","name":"Kerema Airport","latitude":-7.96361017227,"longitude":145.770996094,"elevation_ft":10,"type":"medium_airport","iso_country":"PG","municipality":"Kerema","iata_code":"KMA","scheduled_service":"yes"},{"icao":"AYKV","name":"Kavieng Airport","latitude":-2.57940006256,"longitude":150.807998657,"elevation_ft":7,"type":"medium_airport","iso_country":"PG","municipality":"Kavieng","iata_code":"KVG","scheduled_service":"yes"},{"icao":"AYMD","name":"Madang Airport","latitude":-5.20707988739,"longitude":145.789001465,"elevation_ft":20,"type":"medium_airport","iso_country":"PG","municipality":"Madang","iata_code":"MAG","scheduled_service":"yes"},{"icao":"AYMH","name":"Mount Hagen Kagamuga Airport","latitude":-5.828212,"longitude":144.299412,"elevation_ft":5388,"type":"medium_airport","iso_country":"PG","municipality":"Mount Hagen","iata_code":"HGU","scheduled_service":"yes"},{"icao":"AYMN","name":"Mendi Airport","latitude":-6.14774,"longitude":143.656998,"elevation_ft":5680,"type":"medium_airport","iso_country":"PG","municipality":"Mendi","iata_code":"MDU","scheduled_service":"yes"},{"icao":"AYMO","name":"Momote Airport","latitude":-2.06189,"longitude":147.423996,"elevation_ft":12,"type":"medium_airport","iso_country":"PG","municipality":"Manus Island","iata_code":"MAS","scheduled_service":"yes"},{"icao":"AYNZ","name":"Nadzab Tomodachi International Airport","latitude":-6.567995,"longitude":146.726544,"elevation_ft":239,"type":"large_airport","iso_country":"PG","municipality":"Lae","iata_code":"LAE","scheduled_service":"yes"},{"icao":"AYPY","name":"Port Moresby Jacksons International Airport","latitude":-9.443380355834961,"longitude":147.22000122070312,"elevation_ft":146,"type":"large_airport","iso_country":"PG","municipality":"Port Moresby","iata_code":"POM","scheduled_service":"yes"},{"icao":"AYTK","name":"Tokua Airport","latitude":-4.34046,"longitude":152.380005,"elevation_ft":49,"type":"medium_airport","iso_country":"PG","municipality":"Kokopo","iata_code":"RAB","scheduled_service":"yes"},{"icao":"AYVN","name":"Vanimo Airport","latitude":-2.6926,"longitude":141.3028,"elevation_ft":10,"type":"medium_airport","iso_country":"PG","municipality":"Vanimo","iata_code":"VAI","scheduled_service":"yes"},{"icao":"AYWD","name":"Wapenamanda Airport","latitude":-5.635293,"longitude":143.892231,"elevation_ft":5889,"type":"medium_airport","iso_country":"PG","municipality":"Wapenamanda","iata_code":"WBM","scheduled_service":"yes"},{"icao":"AYWK","name":"Wewak International Airport","latitude":-3.58383011818,"longitude":143.669006348,"elevation_ft":19,"type":"medium_airport","iso_country":"PG","municipality":"Wewak","iata_code":"WWK","scheduled_service":"yes"},{"icao":"UBTT","name":"Zabrat Airport","latitude":40.494884,"longitude":49.977065,"elevation_ft":36,"type":"medium_airport","iso_country":"AZ","municipality":"Zabrat","iata_code":"ZXT","scheduled_service":"no"},{"icao":"LBIA","name":"Bezmer Air Base","latitude":42.454899,"longitude":26.3522,"elevation_ft":509,"type":"medium_airport","iso_country":"BG","municipality":"Bezmer","iata_code":"JAM","scheduled_service":"no"},{"icao":"BGAA","name":"Aasiaat Airport","latitude":68.721802,"longitude":-52.784698,"elevation_ft":74,"type":"medium_airport","iso_country":"GL","municipality":"Aasiaat","iata_code":"JEG","scheduled_service":"yes"},{"icao":"BGCO","name":"Neerlerit Inaat Airport","latitude":70.743103,"longitude":-22.650499,"elevation_ft":45,"type":"medium_airport","iso_country":"GL","municipality":"Neerlerit Inaat","iata_code":"CNP","scheduled_service":"yes"},{"icao":"BGGH","name":"Nuuk International Airport","latitude":64.191066,"longitude":-51.67914,"elevation_ft":283,"type":"large_airport","iso_country":"GL","municipality":"Nuuk","iata_code":"GOH","scheduled_service":"yes"},{"icao":"BGJN","name":"Ilulissat Airport","latitude":69.243202,"longitude":-51.057098,"elevation_ft":95,"type":"medium_airport","iso_country":"GL","municipality":"Ilulissat","iata_code":"JAV","scheduled_service":"yes"},{"icao":"BGKK","name":"Kulusuk Airport","latitude":65.573601,"longitude":-37.1236,"elevation_ft":117,"type":"medium_airport","iso_country":"GL","municipality":"Kulusuk","iata_code":"KUS","scheduled_service":"yes"},{"icao":"BGQQ","name":"Qaanaaq Airport","latitude":77.488602,"longitude":-69.388702,"elevation_ft":51,"type":"medium_airport","iso_country":"GL","municipality":"Qaanaaq","iata_code":"NAQ","scheduled_service":"yes"},{"icao":"BGSF","name":"Kangerlussuaq International Airport","latitude":67.010446,"longitude":-50.715294,"elevation_ft":165,"type":"medium_airport","iso_country":"GL","municipality":"Kangerlussuaq","iata_code":"SFJ","scheduled_service":"yes"},{"icao":"BGSS","name":"Sisimiut Airport","latitude":66.951302,"longitude":-53.729301,"elevation_ft":33,"type":"medium_airport","iso_country":"GL","municipality":"Sisimiut","iata_code":"JHS","scheduled_service":"yes"},{"icao":"BGTL","name":"Pituffik Space Base","latitude":76.53063,"longitude":-68.700541,"elevation_ft":251,"type":"medium_airport","iso_country":"GL","municipality":"Pituffik","iata_code":"THU","scheduled_service":"yes"},{"icao":"BIAR","name":"Akureyri International Airport","latitude":65.656573,"longitude":-18.072018,"elevation_ft":6,"type":"large_airport","iso_country":"IS","municipality":"Akureyri","iata_code":"AEY","scheduled_service":"yes"},{"icao":"BIBD","name":"Bildudalur Airport","latitude":65.641296,"longitude":-23.5462,"elevation_ft":18,"type":"medium_airport","iso_country":"IS","municipality":"Bildudalur","iata_code":"BIU","scheduled_service":"no"},{"icao":"BIEG","name":"Egilssta\u00f0ir Airport","latitude":65.2833023071289,"longitude":-14.401399612426758,"elevation_ft":76,"type":"medium_airport","iso_country":"IS","municipality":"Egilssta\u00f0ir","iata_code":"EGS","scheduled_service":"yes"},{"icao":"BIGR","name":"Gr\u00edmsey Airport","latitude":66.5458,"longitude":-18.0173,"elevation_ft":66,"type":"medium_airport","iso_country":"IS","municipality":"Gr\u00edmsey/Sandv\u00edk","iata_code":"GRY","scheduled_service":"yes"},{"icao":"BIHN","name":"Hornafj\u00f6r\u00f0ur Airport","latitude":64.295601,"longitude":-15.2272,"elevation_ft":24,"type":"medium_airport","iso_country":"IS","municipality":"H\u00f6fn","iata_code":"HFN","scheduled_service":"yes"},{"icao":"BIHU","name":"H\u00fasav\u00edk Airport","latitude":65.952301,"longitude":-17.426001,"elevation_ft":48,"type":"medium_airport","iso_country":"IS","municipality":"H\u00fasav\u00edk","iata_code":"HZK","scheduled_service":"no"},{"icao":"BIIS","name":"\u00cdsafj\u00f6r\u00f0ur Airport","latitude":66.058098,"longitude":-23.1353,"elevation_ft":8,"type":"medium_airport","iso_country":"IS","municipality":"\u00cdsafj\u00f6r\u00f0ur","iata_code":"IFJ","scheduled_service":"yes"},{"icao":"BIKF","name":"Keflavik International Airport","latitude":63.985001,"longitude":-22.6056,"elevation_ft":171,"type":"large_airport","iso_country":"IS","municipality":"Reykjav\u00edk","iata_code":"KEF","scheduled_service":"yes"},{"icao":"BIRK","name":"Reykjav\u00edk Domestic Airport","latitude":64.128732,"longitude":-21.93759,"elevation_ft":48,"type":"medium_airport","iso_country":"IS","municipality":"Reykjav\u00edk","iata_code":"RKV","scheduled_service":"yes"},{"icao":"BIRL","name":"M\u00fdvatn Airport","latitude":65.6558,"longitude":-16.9181,"elevation_ft":1030,"type":"medium_airport","iso_country":"IS","municipality":"Myvatn","iata_code":"MVA","scheduled_service":"no"},{"icao":"BISI","name":"Siglufj\u00f6r\u00f0ur Airport","latitude":66.137847,"longitude":-18.908157,"elevation_ft":10,"type":"medium_airport","iso_country":"IS","municipality":"Siglufj\u00f6r\u00f0ur","iata_code":"SIJ","scheduled_service":"no"},{"icao":"BIVM","name":"Vestmannaeyjar Airport","latitude":63.42430114746094,"longitude":-20.278900146484375,"elevation_ft":326,"type":"medium_airport","iso_country":"IS","municipality":"Vestmannaeyjar","iata_code":"VEY","scheduled_service":"no"},{"icao":"BIVO","name":"Vopnafj\u00f6r\u00f0ur Airport","latitude":65.720596,"longitude":-14.8506,"elevation_ft":16,"type":"medium_airport","iso_country":"IS","municipality":"Vopnafj\u00f6r\u00f0ur","iata_code":"VPN","scheduled_service":"yes"},{"icao":"BKPR","name":"Pri\u0161tina Adem Jashari International Airport","latitude":42.5728,"longitude":21.035801,"elevation_ft":1789,"type":"large_airport","iso_country":"XK","municipality":"Prishtina","iata_code":"PRN","scheduled_service":"yes"},{"icao":"SBVC","name":"Glauber de Andrade Rocha Airport","latitude":-14.907885,"longitude":-40.914804,"elevation_ft":2940,"type":"medium_airport","iso_country":"BR","municipality":"Vit\u00f3ria da Conquista","iata_code":"VDC","scheduled_service":"yes"},{"icao":"VTSY","name":"Betong International Airport","latitude":5.79,"longitude":101.15,"elevation_ft":785,"type":"medium_airport","iso_country":"TH","municipality":"Betong","iata_code":"BTZ","scheduled_service":"no"},{"icao":"UMIO","name":"Orsha Airport - Balbasovo Air Base","latitude":54.439999,"longitude":30.2967,"elevation_ft":620,"type":"medium_airport","iso_country":"BY","municipality":"Orsha","iata_code":"TXC","scheduled_service":"no"},{"icao":"UMMO","name":"Osovtsy Air Base","latitude":52.556999,"longitude":24.884001,"elevation_ft":null,"type":"medium_airport","iso_country":"BY","municipality":"Byaroza","iata_code":null,"scheduled_service":"no"},{"icao":"MZCK","name":"Caye Caulker Airport","latitude":17.735015,"longitude":-88.032862,"elevation_ft":2,"type":"medium_airport","iso_country":"BZ","municipality":"Caye Caulker","iata_code":"CUK","scheduled_service":"yes"},{"icao":"MZCP","name":"Caye Chapel Airport","latitude":17.683792,"longitude":-88.044985,"elevation_ft":3,"type":"medium_airport","iso_country":"BZ","municipality":"Caye Chapel","iata_code":"CYC","scheduled_service":"yes"},{"icao":"MZCZ","name":"Corozal Airport","latitude":18.3822,"longitude":-88.411903,"elevation_ft":40,"type":"medium_airport","iso_country":"BZ","municipality":"Corozal","iata_code":"CZH","scheduled_service":"yes"},{"icao":"MZPB","name":"Dangriga Airport","latitude":16.98251,"longitude":-88.230988,"elevation_ft":10,"type":"medium_airport","iso_country":"BZ","municipality":"Dangriga","iata_code":"DGA","scheduled_service":"yes"},{"icao":"MZSJ","name":"Sartaneja Airport","latitude":18.3561,"longitude":-88.130798,"elevation_ft":3,"type":"medium_airport","iso_country":"BZ","municipality":"Sartaneja","iata_code":"SJX","scheduled_service":"no"},{"icao":"MZSP","name":"John Greif II Airport","latitude":17.9139,"longitude":-87.9711,"elevation_ft":4,"type":"medium_airport","iso_country":"BZ","municipality":"San Pedro","iata_code":"SPR","scheduled_service":"yes"},{"icao":"MZBE","name":"Sir Barry Bowen Municipal Airport","latitude":17.517239,"longitude":-88.195775,"elevation_ft":8,"type":"medium_airport","iso_country":"BZ","municipality":"Belize City","iata_code":"TZA","scheduled_service":"yes"},{"icao":"CBBC","name":"Bella Bella (Campbell Island) Airport","latitude":52.185001,"longitude":-128.156994,"elevation_ft":141,"type":"medium_airport","iso_country":"CA","municipality":"Bella Bella","iata_code":"ZEL","scheduled_service":"yes"},{"icao":"ZBLX","name":"Liangxiangzhen Air Base","latitude":39.757801,"longitude":116.125999,"elevation_ft":null,"type":"medium_airport","iso_country":"CN","municipality":"Beijing","iata_code":null,"scheduled_service":"no"},{"icao":"ZGCS","name":"Changsha Datuopu Airport / Changsha Air Base","latitude":28.068522,"longitude":112.957306,"elevation_ft":170,"type":"medium_airport","iso_country":"CN","municipality":"Changsha (Tianxin)","iata_code":null,"scheduled_service":"no"},{"icao":"ZUBZ","name":"Bazhong Enyang Airport","latitude":31.73842,"longitude":106.644872,"elevation_ft":1804,"type":"medium_airport","iso_country":"CN","municipality":"Bazhong","iata_code":"BZX","scheduled_service":"yes"},{"icao":"ZGSG","name":"Shaoguan Danxia Airport","latitude":24.9786,"longitude":113.420998,"elevation_ft":280,"type":"medium_airport","iso_country":"CN","municipality":"Shaoguan","iata_code":"HSC","scheduled_service":"yes"},{"icao":"ZSGS","name":"Jinggangshan Airport","latitude":26.856899,"longitude":114.737,"elevation_ft":281,"type":"medium_airport","iso_country":"CN","municipality":"Ji'an","iata_code":"JGS","scheduled_service":"yes"},{"icao":"ZWML","name":"Malan Air Base","latitude":42.180621,"longitude":87.186784,"elevation_ft":null,"type":"medium_airport","iso_country":"CN","municipality":"Hoxud, Bayingolin","iata_code":null,"scheduled_service":"no"},{"icao":"ZSJX","name":"Jiaxing Nanhu Airport","latitude":30.698056,"longitude":120.663056,"elevation_ft":15,"type":"medium_airport","iso_country":"CN","municipality":"Xiuzhou, Hangzhou","iata_code":"JNH","scheduled_service":"yes"},{"icao":"ZBNJ","name":"Beijing Nanjiao Airport","latitude":39.482845,"longitude":116.372295,"elevation_ft":null,"type":"medium_airport","iso_country":"CN","municipality":"Beijing","iata_code":null,"scheduled_service":"no"},{"icao":"ZYSY","name":"Shenyang Yuhong Quansheng Airport","latitude":41.822498,"longitude":123.299004,"elevation_ft":null,"type":"medium_airport","iso_country":"CN","municipality":"Yuhong, Shenyang","iata_code":null,"scheduled_service":"no"},{"icao":"ZUDR","name":"Shigatse Tingri Airport","latitude":28.604567,"longitude":86.798,"elevation_ft":14108,"type":"medium_airport","iso_country":"CN","municipality":"Xigaz\u00ea (Dingri)","iata_code":"DDR","scheduled_service":"yes"},{"icao":"ZWTK","name":"Tashikuergan Hongqilafu Airport","latitude":37.661333,"longitude":75.288877,"elevation_ft":10499,"type":"medium_airport","iso_country":"CN","municipality":"Tashikuergan","iata_code":"HQL","scheduled_service":"yes"},{"icao":"ZSTZ","name":"Anji Tianzihu General Airport","latitude":30.797725,"longitude":119.590287,"elevation_ft":137,"type":"medium_airport","iso_country":"CN","municipality":"Anji","iata_code":null,"scheduled_service":"no"},{"icao":"ZUPL","name":"Ali Pulan Airport","latitude":30.397898,"longitude":81.13317,"elevation_ft":13943,"type":"medium_airport","iso_country":"CN","municipality":"Burang Town","iata_code":"APJ","scheduled_service":"no"},{"icao":"ZSBA","name":"Bengbu Tenghu Airport","latitude":33.166292,"longitude":117.058344,"elevation_ft":null,"type":"medium_airport","iso_country":"CN","municipality":"Bengbu","iata_code":"BFY","scheduled_service":"yes"},{"icao":"CYAG","name":"Fort Frances Municipal Airport","latitude":48.655749,"longitude":-93.44349,"elevation_ft":1125,"type":"medium_airport","iso_country":"CA","municipality":"Fort Frances","iata_code":"YAG","scheduled_service":"yes"},{"icao":"CYAH","name":"La Grande-4 Airport","latitude":53.754699707,"longitude":-73.6753005981,"elevation_ft":1005,"type":"medium_airport","iso_country":"CA","municipality":"La Grande-4","iata_code":"YAH","scheduled_service":"no"},{"icao":"CYAM","name":"Sault Ste Marie Airport","latitude":46.483216,"longitude":-84.508467,"elevation_ft":630,"type":"medium_airport","iso_country":"CA","municipality":"Sault Ste Marie","iata_code":"YAM","scheduled_service":"yes"},{"icao":"CYAQ","name":"Kasabonika Airport","latitude":53.52470016479492,"longitude":-88.6427993774414,"elevation_ft":672,"type":"medium_airport","iso_country":"CA","municipality":"Kasabonika","iata_code":"XKS","scheduled_service":"yes"},{"icao":"CYAV","name":"Winnipeg / St. Andrews Airport","latitude":50.0564,"longitude":-97.032501,"elevation_ft":760,"type":"medium_airport","iso_country":"CA","municipality":"Winnipeg/Saint Andrews","iata_code":null,"scheduled_service":"yes"},{"icao":"CYAX","name":"Lac du Bonnet Airport","latitude":50.294399,"longitude":-96.010002,"elevation_ft":850,"type":"medium_airport","iso_country":"CA","municipality":"Lac du Bonnet","iata_code":null,"scheduled_service":"yes"},{"icao":"CYAY","name":"St. Anthony Airport","latitude":51.391909,"longitude":-56.08321,"elevation_ft":108,"type":"medium_airport","iso_country":"CA","municipality":"St. Anthony","iata_code":"YAY","scheduled_service":"yes"},{"icao":"CYAZ","name":"Tofino / Long Beach Airport","latitude":49.079833,"longitude":-125.775583,"elevation_ft":80,"type":"medium_airport","iso_country":"CA","municipality":"Tofino","iata_code":"YAZ","scheduled_service":"yes"},{"icao":"CYBC","name":"Baie-Comeau Airport","latitude":49.1325,"longitude":-68.204399,"elevation_ft":71,"type":"medium_airport","iso_country":"CA","municipality":"Baie-Comeau","iata_code":"YBC","scheduled_service":"yes"},{"icao":"CYBD","name":"Bella Coola Airport","latitude":52.387501,"longitude":-126.596001,"elevation_ft":117,"type":"medium_airport","iso_country":"CA","municipality":"Bella Coola","iata_code":"QBC","scheduled_service":"yes"},{"icao":"CYBF","name":"Bonnyville Airport","latitude":54.304199,"longitude":-110.744003,"elevation_ft":1836,"type":"medium_airport","iso_country":"CA","municipality":"Bonnyville","iata_code":"YBY","scheduled_service":"yes"},{"icao":"CYBG","name":"Saguenay-Bagotville Airport","latitude":48.330123,"longitude":-70.992012,"elevation_ft":522,"type":"medium_airport","iso_country":"CA","municipality":"Saguenay","iata_code":"YBG","scheduled_service":"yes"},{"icao":"CYBK","name":"Baker Lake Airport","latitude":64.29889678960001,"longitude":-96.077796936,"elevation_ft":59,"type":"medium_airport","iso_country":"CA","municipality":"Baker Lake","iata_code":"YBK","scheduled_service":"yes"},{"icao":"CYBL","name":"Campbell River Airport","latitude":49.950802,"longitude":-125.271004,"elevation_ft":346,"type":"medium_airport","iso_country":"CA","municipality":"Campbell River","iata_code":"YBL","scheduled_service":"yes"},{"icao":"CYBR","name":"Brandon Municipal Airport","latitude":49.91,"longitude":-99.951897,"elevation_ft":1343,"type":"medium_airport","iso_country":"CA","municipality":"Brandon","iata_code":"YBR","scheduled_service":"yes"},{"icao":"CYBU","name":"Nipawin Airport","latitude":53.33250045776367,"longitude":-104.00800323486328,"elevation_ft":1220,"type":"medium_airport","iso_country":"CA","municipality":"Nipawin","iata_code":null,"scheduled_service":"no"},{"icao":"CYBW","name":"Calgary / Springbank Airport","latitude":51.103982,"longitude":-114.369378,"elevation_ft":3940,"type":"medium_airport","iso_country":"CA","municipality":"Calgary","iata_code":null,"scheduled_service":"no"},{"icao":"CYBX","name":"Lourdes-de-Blanc-Sablon Airport","latitude":51.4436,"longitude":-57.185299,"elevation_ft":121,"type":"medium_airport","iso_country":"CA","municipality":"Blanc-Sablon","iata_code":"YBX","scheduled_service":"yes"},{"icao":"CYCB","name":"Cambridge Bay Airport","latitude":69.1081008911,"longitude":-105.138000488,"elevation_ft":90,"type":"medium_airport","iso_country":"CA","municipality":"Cambridge Bay","iata_code":"YCB","scheduled_service":"yes"},{"icao":"CYCC","name":"Cornwall Regional Airport","latitude":45.092637,"longitude":-74.567724,"elevation_ft":175,"type":"medium_airport","iso_country":"CA","municipality":"Cornwall","iata_code":"YCC","scheduled_service":"no"},{"icao":"CYCD","name":"Nanaimo Airport","latitude":49.05497,"longitude":-123.869863,"elevation_ft":92,"type":"medium_airport","iso_country":"CA","municipality":"Nanaimo","iata_code":"YCD","scheduled_service":"yes"},{"icao":"CYCE","name":"Centralia / James T. Field Memorial Aerodrome","latitude":43.285599,"longitude":-81.508301,"elevation_ft":824,"type":"medium_airport","iso_country":"CA","municipality":"Huron Park","iata_code":"YCE","scheduled_service":"no"},{"icao":"CYCG","name":"Castlegar/West Kootenay Regional Airport","latitude":49.296398,"longitude":-117.632004,"elevation_ft":1624,"type":"medium_airport","iso_country":"CA","municipality":"Castlegar","iata_code":"YCG","scheduled_service":"yes"},{"icao":"CYCH","name":"Miramichi Airport","latitude":47.007801,"longitude":-65.449203,"elevation_ft":108,"type":"medium_airport","iso_country":"CA","municipality":"Miramichi","iata_code":"YCH","scheduled_service":"no"},{"icao":"CYCL","name":"Charlo Airport","latitude":47.990799,"longitude":-66.330299,"elevation_ft":132,"type":"medium_airport","iso_country":"CA","municipality":"Charlo","iata_code":"YCL","scheduled_service":"yes"},{"icao":"CYCN","name":"Cochrane Airport","latitude":49.10559844970703,"longitude":-81.01360321044922,"elevation_ft":861,"type":"medium_airport","iso_country":"CA","municipality":"Cochrane","iata_code":"YCN","scheduled_service":"no"},{"icao":"CYCP","name":"Blue River Airport","latitude":52.11669921875,"longitude":-119.28299713134766,"elevation_ft":2240,"type":"medium_airport","iso_country":"CA","municipality":"Blue River","iata_code":null,"scheduled_service":"no"},{"icao":"CYCQ","name":"Chetwynd Airport","latitude":55.687198638916016,"longitude":-121.62699890136719,"elevation_ft":2000,"type":"medium_airport","iso_country":"CA","municipality":"Chetwynd","iata_code":"YCQ","scheduled_service":"no"},{"icao":"CYDA","name":"Dawson City Airport","latitude":64.04309844970703,"longitude":-139.1280059814453,"elevation_ft":1215,"type":"medium_airport","iso_country":"CA","municipality":"Dawson City","iata_code":"YDA","scheduled_service":"yes"},{"icao":"CYDB","name":"Burwash Airport","latitude":61.371101,"longitude":-139.041,"elevation_ft":2647,"type":"medium_airport","iso_country":"CA","municipality":"Burwash Landing","iata_code":"YDB","scheduled_service":"no"},{"icao":"CYDF","name":"Deer Lake Airport","latitude":49.208159,"longitude":-57.396147,"elevation_ft":72,"type":"medium_airport","iso_country":"CA","municipality":"Deer Lake","iata_code":"YDF","scheduled_service":"yes"},{"icao":"CYDM","name":"Ross River Airport","latitude":61.9706001282,"longitude":-132.42300415,"elevation_ft":2314,"type":"medium_airport","iso_country":"CA","municipality":"Ross River","iata_code":"XRR","scheduled_service":"no"},{"icao":"CYDN","name":"Dauphin Barker Airport","latitude":51.1008,"longitude":-100.052002,"elevation_ft":999,"type":"medium_airport","iso_country":"CA","municipality":"Dauphin","iata_code":"YDN","scheduled_service":"yes"},{"icao":"CYDO","name":"Dolbeau-Saint-Felicien Airport","latitude":48.7785,"longitude":-72.375,"elevation_ft":372,"type":"medium_airport","iso_country":"CA","municipality":"Dolbeau-Saint-Felicien","iata_code":"YDO","scheduled_service":"no"},{"icao":"CYDQ","name":"Dawson Creek Airport","latitude":55.741245,"longitude":-120.183263,"elevation_ft":2148,"type":"medium_airport","iso_country":"CA","municipality":"Dawson Creek","iata_code":"YDQ","scheduled_service":"no"},{"icao":"CYEE","name":"Huronia Airport","latitude":44.6833000183,"longitude":-79.9282989502,"elevation_ft":770,"type":"medium_airport","iso_country":"CA","municipality":"Midland","iata_code":null,"scheduled_service":"no"},{"icao":"CYEG","name":"Edmonton International Airport","latitude":53.3097,"longitude":-113.580002,"elevation_ft":2373,"type":"large_airport","iso_country":"CA","municipality":"Edmonton","iata_code":"YEG","scheduled_service":"yes"},{"icao":"CYEL","name":"Elliot Lake Municipal Airport","latitude":46.351398468,"longitude":-82.5614013672,"elevation_ft":1087,"type":"medium_airport","iso_country":"CA","municipality":"Elliot Lake","iata_code":"YEL","scheduled_service":"no"},{"icao":"CYEM","name":"Manitoulin East Municipal Airport","latitude":45.842435,"longitude":-81.857595,"elevation_ft":869,"type":"medium_airport","iso_country":"CA","municipality":"Sheguiandah","iata_code":"YEM","scheduled_service":"no"},{"icao":"CYEN","name":"Estevan Airport","latitude":49.2103004456,"longitude":-102.966003418,"elevation_ft":1905,"type":"medium_airport","iso_country":"CA","municipality":"Estevan","iata_code":"YEN","scheduled_service":"no"},{"icao":"CYET","name":"Edson Airport","latitude":53.578899383499994,"longitude":-116.464996338,"elevation_ft":3043,"type":"medium_airport","iso_country":"CA","municipality":"Edson","iata_code":"YET","scheduled_service":"no"},{"icao":"CYEV","name":"Inuvik Mike Zubko Airport","latitude":68.30419921880001,"longitude":-133.483001709,"elevation_ft":224,"type":"medium_airport","iso_country":"CA","municipality":"Inuvik","iata_code":"YEV","scheduled_service":"yes"},{"icao":"CYEY","name":"Amos/Magny Airport","latitude":48.563903,"longitude":-78.249702,"elevation_ft":1068,"type":"medium_airport","iso_country":"CA","municipality":"Amos","iata_code":"YEY","scheduled_service":"no"},{"icao":"CYFB","name":"Iqaluit Airport","latitude":63.756402,"longitude":-68.555801,"elevation_ft":110,"type":"medium_airport","iso_country":"CA","municipality":"Iqaluit","iata_code":"YFB","scheduled_service":"yes"},{"icao":"CYFC","name":"Fredericton International Airport","latitude":45.868697,"longitude":-66.529891,"elevation_ft":68,"type":"medium_airport","iso_country":"CA","municipality":"Fredericton","iata_code":"YFC","scheduled_service":"yes"},{"icao":"CYFD","name":"Brantford Municipal Airport","latitude":43.131401,"longitude":-80.342499,"elevation_ft":815,"type":"medium_airport","iso_country":"CA","municipality":"Brantford","iata_code":null,"scheduled_service":"no"},{"icao":"CYFE","name":"Forestville Airport","latitude":48.74610137939453,"longitude":-69.09719848632812,"elevation_ft":293,"type":"medium_airport","iso_country":"CA","municipality":"Forestville","iata_code":"YFE","scheduled_service":"no"},{"icao":"CYFJ","name":"Mont-Tremblant International Airport","latitude":46.409401,"longitude":-74.779999,"elevation_ft":827,"type":"medium_airport","iso_country":"CA","municipality":"La Macaza","iata_code":"YTM","scheduled_service":"no"},{"icao":"CYFR","name":"Fort Resolution Airport","latitude":61.1808013916,"longitude":-113.690002441,"elevation_ft":526,"type":"medium_airport","iso_country":"CA","municipality":"Fort Resolution","iata_code":"YFR","scheduled_service":"no"},{"icao":"CYFS","name":"Fort Simpson Airport","latitude":61.76020050048828,"longitude":-121.23699951171875,"elevation_ft":555,"type":"medium_airport","iso_country":"CA","municipality":"Fort Simpson","iata_code":"YFS","scheduled_service":"yes"},{"icao":"CYGD","name":"Goderich Airport","latitude":43.7668991089,"longitude":-81.7106018066,"elevation_ft":712,"type":"medium_airport","iso_country":"CA","municipality":"Goderich","iata_code":null,"scheduled_service":"no"},{"icao":"CYGE","name":"Golden Airport","latitude":51.299196,"longitude":-116.982002,"elevation_ft":2575,"type":"medium_airport","iso_country":"CA","municipality":"Golden","iata_code":null,"scheduled_service":"no"},{"icao":"CYGK","name":"Kingston Norman Rogers Airport","latitude":44.2253,"longitude":-76.596901,"elevation_ft":305,"type":"medium_airport","iso_country":"CA","municipality":"Kingston","iata_code":"YGK","scheduled_service":"no"},{"icao":"CYGL","name":"La Grande Rivi\u00e8re Airport","latitude":53.625301361083984,"longitude":-77.7042007446289,"elevation_ft":639,"type":"medium_airport","iso_country":"CA","municipality":"La Grande Rivi\u00e8re","iata_code":"YGL","scheduled_service":"yes"},{"icao":"CYGM","name":"Gimli Industrial Park Airport","latitude":50.62810134887695,"longitude":-97.04329681396484,"elevation_ft":753,"type":"medium_airport","iso_country":"CA","municipality":"Gimli","iata_code":"YGM","scheduled_service":"no"},{"icao":"CYGP","name":"Michel-Pouliot Gasp\u00e9 Airport","latitude":48.774915,"longitude":-64.481893,"elevation_ft":112,"type":"medium_airport","iso_country":"CA","municipality":"Gasp\u00e9","iata_code":"YGP","scheduled_service":"yes"},{"icao":"CYGQ","name":"Geraldton Greenstone Regional Airport","latitude":49.77830123901367,"longitude":-86.93939971923828,"elevation_ft":1144,"type":"medium_airport","iso_country":"CA","municipality":"Geraldton","iata_code":"YGQ","scheduled_service":"no"},{"icao":"CYGR","name":"\u00celes-de-la-Madeleine Airport","latitude":47.425242,"longitude":-61.778612,"elevation_ft":35,"type":"medium_airport","iso_country":"CA","municipality":"Les \u00celes-de-la-Madeleine","iata_code":"YGR","scheduled_service":"yes"},{"icao":"CYGV","name":"Havre-Saint-Pierre Airport","latitude":50.281898,"longitude":-63.611401,"elevation_ft":124,"type":"medium_airport","iso_country":"CA","municipality":"Havre-Saint-Pierre","iata_code":"YGV","scheduled_service":"yes"},{"icao":"CYGW","name":"Kuujjuarapik Airport","latitude":55.281898498535156,"longitude":-77.76529693603516,"elevation_ft":34,"type":"medium_airport","iso_country":"CA","municipality":"Kuujjuarapik","iata_code":"YGW","scheduled_service":"yes"},{"icao":"CYHD","name":"Dryden Regional Airport","latitude":49.831699,"longitude":-92.744202,"elevation_ft":1354,"type":"medium_airport","iso_country":"CA","municipality":"Dryden","iata_code":"YHD","scheduled_service":"no"},{"icao":"CYHF","name":"Hearst Ren\u00e9 Fontaine Municipal Airport","latitude":49.71419906616211,"longitude":-83.68609619140625,"elevation_ft":827,"type":"medium_airport","iso_country":"CA","municipality":"Hearst","iata_code":"YHF","scheduled_service":"no"},{"icao":"CYHM","name":"John C. Munro Hamilton International Airport","latitude":43.17348,"longitude":-79.931185,"elevation_ft":780,"type":"medium_airport","iso_country":"CA","municipality":"Hamilton","iata_code":"YHM","scheduled_service":"yes"},{"icao":"CYHN","name":"Hornepayne Municipal Airport","latitude":49.19309997558594,"longitude":-84.75890350341797,"elevation_ft":1099,"type":"medium_airport","iso_country":"CA","municipality":"Hornepayne","iata_code":"YHN","scheduled_service":"no"},{"icao":"CYHT","name":"Haines Junction Airport","latitude":60.7892,"longitude":-137.546005,"elevation_ft":2150,"type":"medium_airport","iso_country":"CA","municipality":"Haines Junction","iata_code":"YHT","scheduled_service":"no"},{"icao":"CYHU","name":"Montr\u00e9al / Saint-Hubert Metropolitan Airport","latitude":45.517502,"longitude":-73.416901,"elevation_ft":90,"type":"medium_airport","iso_country":"CA","municipality":"Montr\u00e9al","iata_code":"YHU","scheduled_service":"yes"},{"icao":"CYHY","name":"Hay River / Merlyn Carter Airport","latitude":60.8396987915,"longitude":-115.782997131,"elevation_ft":541,"type":"medium_airport","iso_country":"CA","municipality":"Hay River","iata_code":"YHY","scheduled_service":"yes"},{"icao":"CYHZ","name":"Halifax / Stanfield International Airport","latitude":44.8807983398,"longitude":-63.5085983276,"elevation_ft":477,"type":"large_airport","iso_country":"CA","municipality":"Halifax","iata_code":"YHZ","scheduled_service":"yes"},{"icao":"CYIB","name":"Atikokan Municipal Airport","latitude":48.773899,"longitude":-91.638603,"elevation_ft":1408,"type":"medium_airport","iso_country":"CA","municipality":"Atikokan","iata_code":"YIB","scheduled_service":"no"},{"icao":"CYID","name":"Digby / Annapolis Regional Airport","latitude":44.5458450365,"longitude":-65.7854247093,"elevation_ft":499,"type":"medium_airport","iso_country":"CA","municipality":"Digby","iata_code":"YDG","scheduled_service":"no"},{"icao":"CYIF","name":"St Augustin Airport","latitude":51.2117,"longitude":-58.658298,"elevation_ft":20,"type":"medium_airport","iso_country":"CA","municipality":"St-Augustin","iata_code":"YIF","scheduled_service":"yes"},{"icao":"CYIV","name":"Island Lake Airport","latitude":53.857200622558594,"longitude":-94.65360260009766,"elevation_ft":770,"type":"medium_airport","iso_country":"CA","municipality":"Island Lake","iata_code":"YIV","scheduled_service":"yes"},{"icao":"CYJF","name":"Fort Liard Airport","latitude":60.235801696799996,"longitude":-123.46900177,"elevation_ft":708,"type":"medium_airport","iso_country":"CA","municipality":"Fort Liard","iata_code":"YJF","scheduled_service":"no"},{"icao":"CYJN","name":"St Jean Airport","latitude":45.29439926147461,"longitude":-73.28109741210938,"elevation_ft":136,"type":"medium_airport","iso_country":"CA","municipality":"St Jean","iata_code":"YJN","scheduled_service":"no"},{"icao":"CYJT","name":"Stephenville Dymond International Airport","latitude":48.54339,"longitude":-58.552892,"elevation_ft":84,"type":"medium_airport","iso_country":"CA","municipality":"Stephenville","iata_code":"YJT","scheduled_service":"yes"},{"icao":"CYKA","name":"Kamloops John Moose Fulton Field Regional Airport","latitude":50.703038,"longitude":-120.448641,"elevation_ft":1133,"type":"medium_airport","iso_country":"CA","municipality":"Kamloops","iata_code":"YKA","scheduled_service":"yes"},{"icao":"CYKF","name":"Region of Waterloo International Airport","latitude":43.4608,"longitude":-80.378601,"elevation_ft":1054,"type":"medium_airport","iso_country":"CA","municipality":"Breslau","iata_code":"YKF","scheduled_service":"yes"},{"icao":"CYKJ","name":"Key Lake Airport","latitude":57.256099700927734,"longitude":-105.61799621582031,"elevation_ft":1679,"type":"medium_airport","iso_country":"CA","municipality":"Key Lake","iata_code":"YKJ","scheduled_service":"no"},{"icao":"CYKL","name":"Schefferville Airport","latitude":54.805301666259766,"longitude":-66.8052978515625,"elevation_ft":1709,"type":"medium_airport","iso_country":"CA","municipality":"Schefferville","iata_code":"YKL","scheduled_service":"yes"},{"icao":"CYKM","name":"Kincardine Municipal Airport","latitude":44.201401,"longitude":-81.606697,"elevation_ft":772,"type":"medium_airport","iso_country":"CA","municipality":"Kincardine","iata_code":"YKD","scheduled_service":"no"},{"icao":"CYKX","name":"Kirkland Lake Airport","latitude":48.21030044555664,"longitude":-79.98139953613281,"elevation_ft":1157,"type":"medium_airport","iso_country":"CA","municipality":"Kirkland Lake","iata_code":"YKX","scheduled_service":"no"},{"icao":"CYKY","name":"Kindersley Airport","latitude":51.5175018311,"longitude":-109.180999756,"elevation_ft":2277,"type":"medium_airport","iso_country":"CA","municipality":"Kindersley","iata_code":"YKY","scheduled_service":"no"},{"icao":"CYLD","name":"Chapleau Airport","latitude":47.81999969482422,"longitude":-83.3467025756836,"elevation_ft":1470,"type":"medium_airport","iso_country":"CA","municipality":"Chapleau","iata_code":"YLD","scheduled_service":"no"},{"icao":"CYLJ","name":"Meadow Lake Airport","latitude":54.125301361083984,"longitude":-108.52300262451172,"elevation_ft":1576,"type":"medium_airport","iso_country":"CA","municipality":"Meadow Lake","iata_code":"YLJ","scheduled_service":"no"},{"icao":"CYLL","name":"Lloydminster Airport","latitude":53.3092,"longitude":-110.072998,"elevation_ft":2193,"type":"medium_airport","iso_country":"CA","municipality":"Lloydminster","iata_code":"YLL","scheduled_service":"yes"},{"icao":"CYLR","name":"Leaf Rapids Airport","latitude":56.513301849365234,"longitude":-99.98529815673828,"elevation_ft":959,"type":"medium_airport","iso_country":"CA","municipality":"Leaf Rapids","iata_code":"YLR","scheduled_service":"no"},{"icao":"CYLS","name":"Barrie-Lake Simcoe Regional Airport","latitude":44.485056,"longitude":-79.554663,"elevation_ft":972,"type":"medium_airport","iso_country":"CA","municipality":"Barrie","iata_code":"YLK","scheduled_service":"yes"},{"icao":"CYLT","name":"Alert Airport","latitude":82.517263,"longitude":-62.283037,"elevation_ft":100,"type":"medium_airport","iso_country":"CA","municipality":"Alert","iata_code":"YLT","scheduled_service":"no"},{"icao":"CYLW","name":"Kelowna International Airport","latitude":49.9561,"longitude":-119.377998,"elevation_ft":1421,"type":"large_airport","iso_country":"CA","municipality":"Kelowna","iata_code":"YLW","scheduled_service":"yes"},{"icao":"CYMA","name":"Mayo Airport","latitude":63.61640167236328,"longitude":-135.8679962158203,"elevation_ft":1653,"type":"medium_airport","iso_country":"CA","municipality":"Mayo","iata_code":"YMA","scheduled_service":"no"},{"icao":"CYME","name":"Matane Airport","latitude":48.85689926147461,"longitude":-67.45330047607422,"elevation_ft":102,"type":"medium_airport","iso_country":"CA","municipality":"Matane","iata_code":"YME","scheduled_service":"no"},{"icao":"CYMG","name":"Manitouwadge Airport","latitude":49.083900451660156,"longitude":-85.86060333251953,"elevation_ft":1198,"type":"medium_airport","iso_country":"CA","municipality":"Manitouwadge","iata_code":"YMG","scheduled_service":"no"},{"icao":"CYMJ","name":"Moose Jaw Air Vice Marshal C. M. McEwen Airport","latitude":50.330299377441406,"longitude":-105.55899810791016,"elevation_ft":1892,"type":"medium_airport","iso_country":"CA","municipality":"Moose Jaw","iata_code":"YMJ","scheduled_service":"no"},{"icao":"CYML","name":"Charlevoix Airport","latitude":47.59749984741211,"longitude":-70.2238998413086,"elevation_ft":977,"type":"medium_airport","iso_country":"CA","municipality":"Charlevoix","iata_code":"YML","scheduled_service":"no"},{"icao":"CYMM","name":"Fort McMurray International Airport","latitude":56.653301,"longitude":-111.222,"elevation_ft":1211,"type":"medium_airport","iso_country":"CA","municipality":"Fort McMurray","iata_code":"YMM","scheduled_service":"yes"},{"icao":"CYMO","name":"Moosonee Airport","latitude":51.291099548339844,"longitude":-80.60780334472656,"elevation_ft":30,"type":"medium_airport","iso_country":"CA","municipality":"Moosonee","iata_code":"YMO","scheduled_service":"yes"},{"icao":"CYMT","name":"Chapais Airport","latitude":49.77190017700195,"longitude":-74.5280990600586,"elevation_ft":1270,"type":"medium_airport","iso_country":"CA","municipality":"Chibougamau","iata_code":"YMT","scheduled_service":"yes"},{"icao":"CYMX","name":"Montreal Mirabel International Airport","latitude":45.679501,"longitude":-74.038696,"elevation_ft":270,"type":"medium_airport","iso_country":"CA","municipality":"Montr\u00e9al","iata_code":"YMX","scheduled_service":"yes"},{"icao":"CYNA","name":"Natashquan Airport","latitude":50.190114,"longitude":-61.78898,"elevation_ft":39,"type":"medium_airport","iso_country":"CA","municipality":"Natashquan","iata_code":"YNA","scheduled_service":"yes"},{"icao":"CYND","name":"Ottawa / Gatineau Airport","latitude":45.521702,"longitude":-75.563599,"elevation_ft":211,"type":"medium_airport","iso_country":"CA","municipality":"Gatineau","iata_code":"YND","scheduled_service":"yes"},{"icao":"CYNJ","name":"Langley Airport","latitude":49.1008,"longitude":-122.630997,"elevation_ft":34,"type":"medium_airport","iso_country":"CA","municipality":"Langley","iata_code":"YLY","scheduled_service":"no"},{"icao":"CYNL","name":"Points North Landing Airport","latitude":58.27669906616211,"longitude":-104.08200073242188,"elevation_ft":1605,"type":"medium_airport","iso_country":"CA","municipality":"Points North Landing","iata_code":"YNL","scheduled_service":"yes"},{"icao":"CYNM","name":"Matagami Airport","latitude":49.76169967651367,"longitude":-77.80280303955078,"elevation_ft":918,"type":"medium_airport","iso_country":"CA","municipality":"Matagami","iata_code":"YNM","scheduled_service":"no"},{"icao":"CYNN","name":"Nejanilini Lake Airport","latitude":59.4874992371,"longitude":-97.78029632570001,"elevation_ft":1000,"type":"medium_airport","iso_country":"CA","municipality":"Nejanilini Lake","iata_code":null,"scheduled_service":"no"},{"icao":"CYOA","name":"Ekati Airport","latitude":64.6988983154,"longitude":-110.614997864,"elevation_ft":1536,"type":"medium_airport","iso_country":"CA","municipality":"Ekati","iata_code":"YOA","scheduled_service":"no"},{"icao":"CYOD","name":"CFB Cold Lake","latitude":54.404998779296875,"longitude":-110.27899932861328,"elevation_ft":1775,"type":"medium_airport","iso_country":"CA","municipality":"Cold Lake","iata_code":"YOD","scheduled_service":"no"},{"icao":"CYOJ","name":"High Level Airport","latitude":58.62139892578125,"longitude":-117.16500091552734,"elevation_ft":1110,"type":"medium_airport","iso_country":"CA","municipality":"High Level","iata_code":"YOJ","scheduled_service":"yes"},{"icao":"CYOO","name":"Oshawa Executive Airport","latitude":43.922798,"longitude":-78.894997,"elevation_ft":460,"type":"medium_airport","iso_country":"CA","municipality":"Oshawa","iata_code":"YOO","scheduled_service":"no"},{"icao":"CYOP","name":"Rainbow Lake Airport","latitude":58.491402,"longitude":-119.407997,"elevation_ft":1759,"type":"medium_airport","iso_country":"CA","municipality":"Rainbow Lake","iata_code":"YOP","scheduled_service":"no"},{"icao":"CYOS","name":"Owen Sound / Billy Bishop Regional Airport","latitude":44.5903015137,"longitude":-80.8375015259,"elevation_ft":1007,"type":"medium_airport","iso_country":"CA","municipality":"Owen Sound","iata_code":"YOS","scheduled_service":"no"},{"icao":"CYOW","name":"Ottawa Macdonald-Cartier International Airport","latitude":45.322498,"longitude":-75.669197,"elevation_ft":374,"type":"large_airport","iso_country":"CA","municipality":"Ottawa","iata_code":"YOW","scheduled_service":"yes"},{"icao":"CYPA","name":"Prince Albert Glass Field","latitude":53.214199066199996,"longitude":-105.672996521,"elevation_ft":1405,"type":"medium_airport","iso_country":"CA","municipality":"Prince Albert","iata_code":"YPA","scheduled_service":"yes"},{"icao":"CYPD","name":"Port Hawkesbury Airport","latitude":45.6567001343,"longitude":-61.3680992126,"elevation_ft":377,"type":"medium_airport","iso_country":"CA","municipality":"Port Hawkesbury","iata_code":"YPS","scheduled_service":"no"},{"icao":"CYPE","name":"Peace River Airport","latitude":56.226898,"longitude":-117.446999,"elevation_ft":1873,"type":"medium_airport","iso_country":"CA","municipality":"Peace River","iata_code":"YPE","scheduled_service":"yes"},{"icao":"CYPG","name":"Portage-la-Prairie / Southport Airport","latitude":49.903099,"longitude":-98.273817,"elevation_ft":885,"type":"medium_airport","iso_country":"CA","municipality":"Portage la Prairie","iata_code":"YPG","scheduled_service":"no"},{"icao":"CYPK","name":"Pitt Meadows Regional Airport","latitude":49.21488,"longitude":-122.709294,"elevation_ft":11,"type":"medium_airport","iso_country":"CA","municipality":"Pitt Meadows","iata_code":null,"scheduled_service":"yes"},{"icao":"CYPL","name":"Pickle Lake Airport","latitude":51.4463996887207,"longitude":-90.21420288085938,"elevation_ft":1267,"type":"medium_airport","iso_country":"CA","municipality":"Pickle Lake","iata_code":"YPL","scheduled_service":"yes"},{"icao":"CYPN","name":"Port-Menier Airport","latitude":49.836399,"longitude":-64.288597,"elevation_ft":167,"type":"medium_airport","iso_country":"CA","municipality":"Port-Menier","iata_code":"YPN","scheduled_service":"yes"},{"icao":"CYPQ","name":"Peterborough Regional Airport","latitude":44.232251,"longitude":-78.362053,"elevation_ft":628,"type":"medium_airport","iso_country":"CA","municipality":"Peterborough","iata_code":"YPQ","scheduled_service":"yes"},{"icao":"CYPR","name":"Prince Rupert Airport","latitude":54.286098480199996,"longitude":-130.445007324,"elevation_ft":116,"type":"medium_airport","iso_country":"CA","municipality":"Prince Rupert","iata_code":"YPR","scheduled_service":"yes"},{"icao":"CYPW","name":"Powell River Airport","latitude":49.83420181274414,"longitude":-124.5,"elevation_ft":425,"type":"medium_airport","iso_country":"CA","municipality":"Powell River","iata_code":"YPW","scheduled_service":"yes"},{"icao":"CYPX","name":"Puvirnituq Airport","latitude":60.050598,"longitude":-77.286903,"elevation_ft":74,"type":"medium_airport","iso_country":"CA","municipality":"Puvirnituq","iata_code":"YPX","scheduled_service":"yes"},{"icao":"CYPY","name":"Fort Chipewyan Airport","latitude":58.7672004699707,"longitude":-111.11699676513672,"elevation_ft":761,"type":"medium_airport","iso_country":"CA","municipality":"Fort Chipewyan","iata_code":"YPY","scheduled_service":"yes"},{"icao":"CYPZ","name":"Burns Lake Airport","latitude":54.3764,"longitude":-125.950996,"elevation_ft":2343,"type":"medium_airport","iso_country":"CA","municipality":"Burns Lake","iata_code":"YPZ","scheduled_service":"yes"},{"icao":"CYQA","name":"Muskoka Airport","latitude":44.975376,"longitude":-79.306546,"elevation_ft":925,"type":"medium_airport","iso_country":"CA","municipality":"Gravenhurst","iata_code":"YQA","scheduled_service":"yes"},{"icao":"CYQB","name":"Quebec Jean Lesage International Airport","latitude":46.7911,"longitude":-71.393303,"elevation_ft":244,"type":"large_airport","iso_country":"CA","municipality":"Quebec","iata_code":"YQB","scheduled_service":"yes"},{"icao":"CYQD","name":"The Pas Airport","latitude":53.97140121459961,"longitude":-101.09100341796875,"elevation_ft":887,"type":"medium_airport","iso_country":"CA","municipality":"The Pas","iata_code":"YQD","scheduled_service":"yes"},{"icao":"CYQF","name":"Red Deer Regional Airport","latitude":52.182201,"longitude":-113.893997,"elevation_ft":2968,"type":"medium_airport","iso_country":"CA","municipality":"Springbrook","iata_code":"YQF","scheduled_service":"no"},{"icao":"CYQG","name":"Windsor International Airport","latitude":42.2756,"longitude":-82.955597,"elevation_ft":622,"type":"medium_airport","iso_country":"CA","municipality":"Windsor","iata_code":"YQG","scheduled_service":"yes"},{"icao":"CYQH","name":"Watson Lake Airport","latitude":60.116839,"longitude":-128.821993,"elevation_ft":2255,"type":"medium_airport","iso_country":"CA","municipality":"Watson Lake","iata_code":"YQH","scheduled_service":"yes"},{"icao":"CYQI","name":"Yarmouth Airport","latitude":43.826900482177734,"longitude":-66.08809661865234,"elevation_ft":141,"type":"medium_airport","iso_country":"CA","municipality":"Yarmouth","iata_code":"YQI","scheduled_service":"no"},{"icao":"CYQK","name":"Kenora Airport","latitude":49.788299560546875,"longitude":-94.36309814453125,"elevation_ft":1332,"type":"medium_airport","iso_country":"CA","municipality":"Kenora","iata_code":"YQK","scheduled_service":"yes"},{"icao":"CYQL","name":"Lethbridge County Airport","latitude":49.6302986145,"longitude":-112.800003052,"elevation_ft":3048,"type":"medium_airport","iso_country":"CA","municipality":"Lethbridge","iata_code":"YQL","scheduled_service":"yes"},{"icao":"CYQM","name":"Greater Moncton Rom\u00e9o LeBlanc International Airport","latitude":46.113189,"longitude":-64.67719,"elevation_ft":232,"type":"medium_airport","iso_country":"CA","municipality":"Moncton","iata_code":"YQM","scheduled_service":"yes"},{"icao":"CYQN","name":"Nakina Airport","latitude":50.18280029296875,"longitude":-86.69640350341797,"elevation_ft":1057,"type":"medium_airport","iso_country":"CA","municipality":"Nakina","iata_code":"YQN","scheduled_service":"yes"},{"icao":"CYQQ","name":"Comox Valley International Airport / CFB Comox","latitude":49.7108,"longitude":-124.887001,"elevation_ft":84,"type":"medium_airport","iso_country":"CA","municipality":"Comox","iata_code":"YQQ","scheduled_service":"yes"},{"icao":"CYQR","name":"Regina International Airport","latitude":50.431938,"longitude":-104.660906,"elevation_ft":1894,"type":"medium_airport","iso_country":"CA","municipality":"Regina","iata_code":"YQR","scheduled_service":"yes"},{"icao":"CYQS","name":"St Thomas Municipal Airport","latitude":42.77000045776367,"longitude":-81.11080169677734,"elevation_ft":778,"type":"medium_airport","iso_country":"CA","municipality":"St Thomas","iata_code":"YQS","scheduled_service":"no"},{"icao":"CYQT","name":"Thunder Bay International Airport","latitude":48.371899,"longitude":-89.323898,"elevation_ft":653,"type":"medium_airport","iso_country":"CA","municipality":"Thunder Bay","iata_code":"YQT","scheduled_service":"yes"},{"icao":"CYQU","name":"Grande Prairie Airport","latitude":55.1796989441,"longitude":-118.885002136,"elevation_ft":2195,"type":"medium_airport","iso_country":"CA","municipality":"Grande Prairie","iata_code":"YQU","scheduled_service":"yes"},{"icao":"CYQV","name":"Yorkton Municipal Airport","latitude":51.264702,"longitude":-102.461998,"elevation_ft":1635,"type":"medium_airport","iso_country":"CA","municipality":"Yorkton","iata_code":"YQV","scheduled_service":"no"},{"icao":"CYQW","name":"North Battleford Airport","latitude":52.769409,"longitude":-108.243742,"elevation_ft":1799,"type":"medium_airport","iso_country":"CA","municipality":"North Battleford","iata_code":"YQW","scheduled_service":"no"},{"icao":"CYQX","name":"Gander International Airport","latitude":48.936258,"longitude":-54.567719,"elevation_ft":496,"type":"medium_airport","iso_country":"CA","municipality":"Gander","iata_code":"YQX","scheduled_service":"yes"},{"icao":"CYQY","name":"Sydney / J.A. Douglas McCurdy Airport","latitude":46.161072,"longitude":-60.049759,"elevation_ft":203,"type":"medium_airport","iso_country":"CA","municipality":"Sydney","iata_code":"YQY","scheduled_service":"yes"},{"icao":"CYQZ","name":"Quesnel Airport","latitude":53.026100158691406,"longitude":-122.51000213623047,"elevation_ft":1789,"type":"medium_airport","iso_country":"CA","municipality":"Quesnel","iata_code":"YQZ","scheduled_service":"yes"},{"icao":"CYRB","name":"Resolute Bay Airport","latitude":74.7169036865,"longitude":-94.9693984985,"elevation_ft":215,"type":"medium_airport","iso_country":"CA","municipality":"Resolute Bay","iata_code":"YRB","scheduled_service":"yes"},{"icao":"CYRI","name":"Rivi\u00e8re-du-Loup Airport","latitude":47.764400482177734,"longitude":-69.58470153808594,"elevation_ft":427,"type":"medium_airport","iso_country":"CA","municipality":"Rivi\u00e8re-du-Loup","iata_code":"YRI","scheduled_service":"no"},{"icao":"CYRJ","name":"Roberval Airport","latitude":48.519665,"longitude":-72.265735,"elevation_ft":586,"type":"medium_airport","iso_country":"CA","municipality":"Roberval","iata_code":"YRJ","scheduled_service":"yes"},{"icao":"CYRL","name":"Red Lake Airport","latitude":51.066898345947266,"longitude":-93.79309844970703,"elevation_ft":1265,"type":"medium_airport","iso_country":"CA","municipality":"Red Lake","iata_code":"YRL","scheduled_service":"yes"},{"icao":"CYRO","name":"Ottawa / Rockcliffe Airport","latitude":45.460496,"longitude":-75.644001,"elevation_ft":188,"type":"medium_airport","iso_country":"CA","municipality":"Ottawa","iata_code":"YRO","scheduled_service":"yes"},{"icao":"CYRP","name":"Ottawa / Carp Airport","latitude":45.3191986084,"longitude":-76.0222015381,"elevation_ft":382,"type":"medium_airport","iso_country":"CA","municipality":"Ottawa","iata_code":null,"scheduled_service":"no"},{"icao":"CYRQ","name":"Trois-Rivi\u00e8res Airport","latitude":46.35279846191406,"longitude":-72.67939758300781,"elevation_ft":199,"type":"medium_airport","iso_country":"CA","municipality":"Trois-Rivi\u00e8res","iata_code":"YRQ","scheduled_service":"no"},{"icao":"CYRT","name":"Rankin Inlet Airport","latitude":62.8114013672,"longitude":-92.1157989502,"elevation_ft":94,"type":"medium_airport","iso_country":"CA","municipality":"Rankin Inlet","iata_code":"YRT","scheduled_service":"yes"},{"icao":"CYRV","name":"Revelstoke Airport","latitude":50.962245,"longitude":-118.184258,"elevation_ft":1459,"type":"medium_airport","iso_country":"CA","municipality":"Revelstoke","iata_code":"YRV","scheduled_service":"no"},{"icao":"CYSB","name":"Sudbury Airport","latitude":46.625,"longitude":-80.79889678955078,"elevation_ft":1141,"type":"medium_airport","iso_country":"CA","municipality":"Sudbury","iata_code":"YSB","scheduled_service":"yes"},{"icao":"CYSC","name":"Sherbrooke Airport","latitude":45.438599,"longitude":-71.691399,"elevation_ft":792,"type":"medium_airport","iso_country":"CA","municipality":"Sherbrooke","iata_code":"YSC","scheduled_service":"no"},{"icao":"CYSF","name":"Stony Rapids Airport","latitude":59.250301361083984,"longitude":-105.84100341796875,"elevation_ft":805,"type":"medium_airport","iso_country":"CA","municipality":"Stony Rapids","iata_code":"YSF","scheduled_service":"yes"},{"icao":"CYSG","name":"Saint-Georges Airport","latitude":46.096401,"longitude":-70.714699,"elevation_ft":893,"type":"medium_airport","iso_country":"CA","municipality":"Saint-Georges","iata_code":null,"scheduled_service":"no"},{"icao":"CYSH","name":"Smiths Falls-Montague (Russ Beach) Airport","latitude":44.945801,"longitude":-75.940598,"elevation_ft":416,"type":"medium_airport","iso_country":"CA","municipality":"Smiths Falls","iata_code":"YSH","scheduled_service":"no"},{"icao":"CYSJ","name":"Saint John Airport","latitude":45.31610107421875,"longitude":-65.89029693603516,"elevation_ft":357,"type":"medium_airport","iso_country":"CA","municipality":"Saint John","iata_code":"YSJ","scheduled_service":"yes"},{"icao":"CYSL","name":"Saint-L\u00e9onard Airport","latitude":47.157097,"longitude":-67.836242,"elevation_ft":793,"type":"medium_airport","iso_country":"CA","municipality":"Saint-L\u00e9onard","iata_code":"YSL","scheduled_service":"yes"},{"icao":"CYSM","name":"Fort Smith Airport","latitude":60.020302,"longitude":-111.961998,"elevation_ft":671,"type":"medium_airport","iso_country":"CA","municipality":"Fort Smith","iata_code":"YSM","scheduled_service":"yes"},{"icao":"CYSN","name":"Niagara District Airport","latitude":43.191598,"longitude":-79.171686,"elevation_ft":321,"type":"medium_airport","iso_country":"CA","municipality":"Niagara-on-the-Lake","iata_code":"YCM","scheduled_service":"yes"},{"icao":"CYSP","name":"Marathon Airport","latitude":48.75529861450195,"longitude":-86.34439849853516,"elevation_ft":1035,"type":"medium_airport","iso_country":"CA","municipality":"Marathon","iata_code":"YSP","scheduled_service":"no"},{"icao":"CYSU","name":"Summerside Airport","latitude":46.440601,"longitude":-63.833599,"elevation_ft":56,"type":"medium_airport","iso_country":"CA","municipality":"Slemon Park","iata_code":"YSU","scheduled_service":"no"},{"icao":"CYTA","name":"Pembroke Airport","latitude":45.86439895629883,"longitude":-77.25170135498047,"elevation_ft":529,"type":"medium_airport","iso_country":"CA","municipality":"Pembroke","iata_code":"YTA","scheduled_service":"no"},{"icao":"CYTF","name":"Alma Airport","latitude":48.5089,"longitude":-71.641899,"elevation_ft":445,"type":"medium_airport","iso_country":"CA","municipality":"Alma","iata_code":"YTF","scheduled_service":"no"},{"icao":"CYTH","name":"Thompson Airport","latitude":55.80110168457031,"longitude":-97.86419677734375,"elevation_ft":729,"type":"medium_airport","iso_country":"CA","municipality":"Thompson","iata_code":"YTH","scheduled_service":"yes"},{"icao":"CYTR","name":"CFB Trenton","latitude":44.118900299072266,"longitude":-77.5280990600586,"elevation_ft":283,"type":"medium_airport","iso_country":"CA","municipality":"Trenton","iata_code":"YTR","scheduled_service":"no"},{"icao":"CYTS","name":"Timmins/Victor M. Power","latitude":48.569698333699996,"longitude":-81.376701355,"elevation_ft":967,"type":"medium_airport","iso_country":"CA","municipality":"Timmins","iata_code":"YTS","scheduled_service":"yes"},{"icao":"CYTZ","name":"Billy Bishop Toronto City Airport","latitude":43.627852,"longitude":-79.39553,"elevation_ft":252,"type":"medium_airport","iso_country":"CA","municipality":"Toronto","iata_code":"YTZ","scheduled_service":"yes"},{"icao":"CYUL","name":"Montreal / Pierre Elliott Trudeau International Airport","latitude":45.467837,"longitude":-73.742294,"elevation_ft":118,"type":"large_airport","iso_country":"CA","municipality":"Montr\u00e9al","iata_code":"YUL","scheduled_service":"yes"},{"icao":"CYUX","name":"Hall Beach Airport","latitude":68.7761,"longitude":-81.2425,"elevation_ft":30,"type":"medium_airport","iso_country":"CA","municipality":"Sanirajak","iata_code":"YUX","scheduled_service":"yes"},{"icao":"CYUY","name":"Rouyn Noranda Airport","latitude":48.20610046386719,"longitude":-78.83560180664062,"elevation_ft":988,"type":"medium_airport","iso_country":"CA","municipality":"Rouyn-Noranda","iata_code":"YUY","scheduled_service":"yes"},{"icao":"CYVB","name":"Bonaventure Airport","latitude":48.071098,"longitude":-65.460297,"elevation_ft":123,"type":"medium_airport","iso_country":"CA","municipality":"Bonaventure","iata_code":"YVB","scheduled_service":"yes"},{"icao":"CYVC","name":"La Ronge Airport","latitude":55.151401519800004,"longitude":-105.262001038,"elevation_ft":1242,"type":"medium_airport","iso_country":"CA","municipality":"La Ronge","iata_code":"YVC","scheduled_service":"yes"},{"icao":"CYVD","name":"Virden / RJ (Bob) Andrew Field Regional Aerodrome","latitude":49.8783,"longitude":-100.917999,"elevation_ft":1454,"type":"medium_airport","iso_country":"CA","municipality":"Virden","iata_code":null,"scheduled_service":"no"},{"icao":"CYVK","name":"Vernon Regional Airport","latitude":50.246163,"longitude":-119.330963,"elevation_ft":1140,"type":"medium_airport","iso_country":"CA","municipality":"Vernon","iata_code":"YVE","scheduled_service":"no"},{"icao":"CYVO","name":"Val-d'Or Airport","latitude":48.0532989502,"longitude":-77.7827987671,"elevation_ft":1107,"type":"medium_airport","iso_country":"CA","municipality":"Val-d'Or","iata_code":"YVO","scheduled_service":"yes"},{"icao":"CYVP","name":"Kuujjuaq Airport","latitude":58.096099853515625,"longitude":-68.4269027709961,"elevation_ft":129,"type":"medium_airport","iso_country":"CA","municipality":"Kuujjuaq","iata_code":"YVP","scheduled_service":"yes"},{"icao":"CYVQ","name":"Norman Wells Airport","latitude":65.28160095214844,"longitude":-126.7979965209961,"elevation_ft":238,"type":"medium_airport","iso_country":"CA","municipality":"Norman Wells","iata_code":"YVQ","scheduled_service":"yes"},{"icao":"CYVR","name":"Vancouver International Airport","latitude":49.193901,"longitude":-123.183998,"elevation_ft":14,"type":"large_airport","iso_country":"CA","municipality":"Vancouver","iata_code":"YVR","scheduled_service":"yes"},{"icao":"CYVV","name":"Wiarton Airport","latitude":44.7458,"longitude":-81.107201,"elevation_ft":729,"type":"medium_airport","iso_country":"CA","municipality":"Wiarton","iata_code":"YVV","scheduled_service":"yes"},{"icao":"CYWG","name":"Winnipeg / James Armstrong Richardson International Airport","latitude":49.909999847399995,"longitude":-97.2398986816,"elevation_ft":783,"type":"large_airport","iso_country":"CA","municipality":"Winnipeg","iata_code":"YWG","scheduled_service":"yes"},{"icao":"CYWK","name":"Wabush Airport","latitude":52.92190170288086,"longitude":-66.8644027709961,"elevation_ft":1808,"type":"medium_airport","iso_country":"CA","municipality":"Wabush","iata_code":"YWK","scheduled_service":"yes"},{"icao":"CYWL","name":"Williams Lake Airport","latitude":52.1831016541,"longitude":-122.054000854,"elevation_ft":3085,"type":"medium_airport","iso_country":"CA","municipality":"Williams Lake","iata_code":"YWL","scheduled_service":"yes"},{"icao":"CYWY","name":"Wrigley Airport","latitude":63.20940017700195,"longitude":-123.43699645996094,"elevation_ft":489,"type":"medium_airport","iso_country":"CA","municipality":"Wrigley","iata_code":"YWY","scheduled_service":"no"},{"icao":"CYXC","name":"Cranbrook/Canadian Rockies International Airport","latitude":49.610802,"longitude":-115.781998,"elevation_ft":3082,"type":"medium_airport","iso_country":"CA","municipality":"Cranbrook","iata_code":"YXC","scheduled_service":"yes"},{"icao":"CYXE","name":"Saskatoon John G. Diefenbaker International Airport","latitude":52.170723,"longitude":-106.700793,"elevation_ft":1653,"type":"large_airport","iso_country":"CA","municipality":"Saskatoon","iata_code":"YXE","scheduled_service":"yes"},{"icao":"CYXH","name":"Medicine Hat Regional Airport","latitude":50.018902,"longitude":-110.721001,"elevation_ft":2352,"type":"medium_airport","iso_country":"CA","municipality":"Medicine Hat","iata_code":"YXH","scheduled_service":"yes"},{"icao":"CYXJ","name":"Fort St John / North Peace Regional Airport","latitude":56.238098,"longitude":-120.739998,"elevation_ft":2280,"type":"medium_airport","iso_country":"CA","municipality":"Fort Saint John","iata_code":"YXJ","scheduled_service":"yes"},{"icao":"CYXK","name":"Rimouski Airport","latitude":48.477644,"longitude":-68.496323,"elevation_ft":82,"type":"medium_airport","iso_country":"CA","municipality":"Rimouski","iata_code":"YXK","scheduled_service":"yes"},{"icao":"CYXL","name":"Sioux Lookout Airport","latitude":50.11389923095703,"longitude":-91.9052963256836,"elevation_ft":1258,"type":"medium_airport","iso_country":"CA","municipality":"Sioux Lookout","iata_code":"YXL","scheduled_service":"yes"},{"icao":"CYXQ","name":"Beaver Creek Airport","latitude":62.410301208496094,"longitude":-140.86700439453125,"elevation_ft":2131,"type":"medium_airport","iso_country":"CA","municipality":"Beaver Creek","iata_code":"YXQ","scheduled_service":"no"},{"icao":"CYXR","name":"Earlton (Timiskaming Regional) Airport","latitude":47.697400654599996,"longitude":-79.8473453522,"elevation_ft":800,"type":"medium_airport","iso_country":"CA","municipality":"Earlton","iata_code":"YXR","scheduled_service":"no"},{"icao":"CYXS","name":"Prince George (International) Airport","latitude":53.884311,"longitude":-122.666554,"elevation_ft":2267,"type":"medium_airport","iso_country":"CA","municipality":"Prince George","iata_code":"YXS","scheduled_service":"yes"},{"icao":"CYXT","name":"Northwest Regional Airport Terrace-Kitimat","latitude":54.468498,"longitude":-128.576009,"elevation_ft":713,"type":"medium_airport","iso_country":"CA","municipality":"Terrace","iata_code":"YXT","scheduled_service":"yes"},{"icao":"CYXU","name":"London International Airport","latitude":43.032845,"longitude":-81.149003,"elevation_ft":912,"type":"medium_airport","iso_country":"CA","municipality":"London","iata_code":"YXU","scheduled_service":"yes"},{"icao":"CYXX","name":"Abbotsford International Airport","latitude":49.025299,"longitude":-122.361,"elevation_ft":195,"type":"medium_airport","iso_country":"CA","municipality":"Abbotsford","iata_code":"YXX","scheduled_service":"yes"},{"icao":"CYXY","name":"Whitehorse / Erik Nielsen International Airport","latitude":60.708533,"longitude":-135.065705,"elevation_ft":2317,"type":"medium_airport","iso_country":"CA","municipality":"Whitehorse","iata_code":"YXY","scheduled_service":"yes"},{"icao":"CYXZ","name":"Wawa Airport","latitude":47.96670150756836,"longitude":-84.78669738769531,"elevation_ft":942,"type":"medium_airport","iso_country":"CA","municipality":"Wawa","iata_code":"YXZ","scheduled_service":"no"},{"icao":"CYYB","name":"North Bay Jack Garland Airport","latitude":46.363602,"longitude":-79.422798,"elevation_ft":1215,"type":"medium_airport","iso_country":"CA","municipality":"North Bay","iata_code":"YYB","scheduled_service":"yes"},{"icao":"CYYC","name":"Calgary International Airport","latitude":51.118822,"longitude":-114.009933,"elevation_ft":3557,"type":"large_airport","iso_country":"CA","municipality":"Calgary","iata_code":"YYC","scheduled_service":"yes"},{"icao":"CYYD","name":"Smithers Airport","latitude":54.82469940185547,"longitude":-127.18299865722656,"elevation_ft":1712,"type":"medium_airport","iso_country":"CA","municipality":"Smithers","iata_code":"YYD","scheduled_service":"yes"},{"icao":"CYYE","name":"Fort Nelson Airport","latitude":58.8363990784,"longitude":-122.597000122,"elevation_ft":1253,"type":"medium_airport","iso_country":"CA","municipality":"Fort Nelson","iata_code":"YYE","scheduled_service":"yes"},{"icao":"CYYF","name":"Penticton Airport","latitude":49.46310043334961,"longitude":-119.60199737548828,"elevation_ft":1129,"type":"medium_airport","iso_country":"CA","municipality":"Penticton","iata_code":"YYF","scheduled_service":"yes"},{"icao":"CYYG","name":"Charlottetown Airport","latitude":46.288911,"longitude":-63.125174,"elevation_ft":160,"type":"medium_airport","iso_country":"CA","municipality":"Charlottetown","iata_code":"YYG","scheduled_service":"yes"},{"icao":"CYYJ","name":"Victoria International Airport","latitude":48.647201,"longitude":-123.427792,"elevation_ft":63,"type":"large_airport","iso_country":"CA","municipality":"Victoria","iata_code":"YYJ","scheduled_service":"yes"},{"icao":"CYYL","name":"Lynn Lake Airport","latitude":56.86389923095703,"longitude":-101.07599639892578,"elevation_ft":1170,"type":"medium_airport","iso_country":"CA","municipality":"Lynn Lake","iata_code":"YYL","scheduled_service":"yes"},{"icao":"CYYN","name":"Swift Current Airport","latitude":50.291900634799994,"longitude":-107.691001892,"elevation_ft":2680,"type":"medium_airport","iso_country":"CA","municipality":"Swift Current","iata_code":"YYN","scheduled_service":"no"},{"icao":"CYYQ","name":"Churchill Airport","latitude":58.739200592041016,"longitude":-94.06500244140625,"elevation_ft":94,"type":"medium_airport","iso_country":"CA","municipality":"Churchill","iata_code":"YYQ","scheduled_service":"yes"},{"icao":"CYYR","name":"Goose Bay Airport","latitude":53.3191986084,"longitude":-60.4258003235,"elevation_ft":160,"type":"medium_airport","iso_country":"CA","municipality":"Goose Bay","iata_code":"YYR","scheduled_service":"yes"},{"icao":"CYYT","name":"St. John's International Airport","latitude":47.618599,"longitude":-52.7519,"elevation_ft":461,"type":"large_airport","iso_country":"CA","municipality":"St. John's","iata_code":"YYT","scheduled_service":"yes"},{"icao":"CYYU","name":"Kapuskasing Airport","latitude":49.411587,"longitude":-82.469645,"elevation_ft":743,"type":"medium_airport","iso_country":"CA","municipality":"Kapuskasing","iata_code":"YYU","scheduled_service":"no"},{"icao":"CYYW","name":"Armstrong Airport","latitude":50.29029846191406,"longitude":-88.90969848632812,"elevation_ft":1058,"type":"medium_airport","iso_country":"CA","municipality":"Armstrong","iata_code":"YYW","scheduled_service":"no"},{"icao":"CYYY","name":"Mont Joli Airport","latitude":48.60860061645508,"longitude":-68.20809936523438,"elevation_ft":172,"type":"medium_airport","iso_country":"CA","municipality":"Mont-Joli","iata_code":"YYY","scheduled_service":"yes"},{"icao":"CYYZ","name":"Toronto Pearson International Airport","latitude":43.675935,"longitude":-79.629421,"elevation_ft":569,"type":"large_airport","iso_country":"CA","municipality":"Toronto","iata_code":"YYZ","scheduled_service":"yes"},{"icao":"CYZE","name":"Gore Bay Manitoulin Airport","latitude":45.8853,"longitude":-82.567802,"elevation_ft":623,"type":"medium_airport","iso_country":"CA","municipality":"Gore Bay","iata_code":"YZE","scheduled_service":"no"},{"icao":"CYZF","name":"Yellowknife International Airport","latitude":62.462799,"longitude":-114.440002,"elevation_ft":675,"type":"medium_airport","iso_country":"CA","municipality":"Yellowknife","iata_code":"YZF","scheduled_service":"yes"},{"icao":"CYZH","name":"Slave Lake Airport","latitude":55.292945,"longitude":-114.777276,"elevation_ft":1912,"type":"medium_airport","iso_country":"CA","municipality":"Slave Lake","iata_code":"YZH","scheduled_service":"no"},{"icao":"CYZP","name":"Sandspit Airport","latitude":53.25429916379999,"longitude":-131.813995361,"elevation_ft":21,"type":"medium_airport","iso_country":"CA","municipality":"Sandspit","iata_code":"YZP","scheduled_service":"yes"},{"icao":"CYZR","name":"Chris Hadfield Airport","latitude":42.999401,"longitude":-82.308899,"elevation_ft":594,"type":"medium_airport","iso_country":"CA","municipality":"Sarnia","iata_code":"YZR","scheduled_service":"no"},{"icao":"CYZS","name":"Coral Harbour Airport","latitude":64.1932983398,"longitude":-83.3593978882,"elevation_ft":210,"type":"medium_airport","iso_country":"CA","municipality":"Coral Harbour","iata_code":"YZS","scheduled_service":"yes"},{"icao":"CYZT","name":"Port Hardy Airport","latitude":50.680599212646484,"longitude":-127.36699676513672,"elevation_ft":71,"type":"medium_airport","iso_country":"CA","municipality":"Port Hardy","iata_code":"YZT","scheduled_service":"yes"},{"icao":"CYZU","name":"Whitecourt Airport","latitude":54.143902,"longitude":-115.787003,"elevation_ft":2567,"type":"medium_airport","iso_country":"CA","municipality":"Whitecourt","iata_code":"YZU","scheduled_service":"yes"},{"icao":"CYZV","name":"Sept-\u00celes Airport","latitude":50.22330093383789,"longitude":-66.2656021118164,"elevation_ft":180,"type":"medium_airport","iso_country":"CA","municipality":"Sept-\u00celes","iata_code":"YZV","scheduled_service":"yes"},{"icao":"CYZW","name":"Teslin Airport","latitude":60.17279815673828,"longitude":-132.7429962158203,"elevation_ft":2313,"type":"medium_airport","iso_country":"CA","municipality":"Teslin","iata_code":"YZW","scheduled_service":"no"},{"icao":"CYZX","name":"CFB Greenwood","latitude":44.98440170288086,"longitude":-64.91690063476562,"elevation_ft":92,"type":"medium_airport","iso_country":"CA","municipality":"Greenwood","iata_code":"YZX","scheduled_service":"no"},{"icao":"CYZY","name":"Mackenzie Airport","latitude":55.297786,"longitude":-123.133907,"elevation_ft":2264,"type":"medium_airport","iso_country":"CA","municipality":"Mackenzie","iata_code":null,"scheduled_service":"yes"},{"icao":"CZAM","name":"Shuswap Regional Airport","latitude":50.682802,"longitude":-119.228996,"elevation_ft":1751,"type":"medium_airport","iso_country":"CA","municipality":"Salmon Arm","iata_code":"YSN","scheduled_service":"no"},{"icao":"CZBB","name":"Boundary Bay Airport","latitude":49.074338,"longitude":-123.006877,"elevation_ft":6,"type":"medium_airport","iso_country":"CA","municipality":"Delta","iata_code":"YDT","scheduled_service":"no"},{"icao":"CZBF","name":"Bathurst Airport","latitude":47.6297,"longitude":-65.738899,"elevation_ft":193,"type":"medium_airport","iso_country":"CA","municipality":"South Tetagouche","iata_code":"ZBF","scheduled_service":"yes"},{"icao":"CZBM","name":"Bromont (Roland D\u00e9sourdy) Airport","latitude":45.290798,"longitude":-72.741402,"elevation_ft":375,"type":"medium_airport","iso_country":"CA","municipality":"Bromont","iata_code":"ZBM","scheduled_service":"no"},{"icao":"CZEE","name":"Kelsey Airport","latitude":56.0374984741,"longitude":-96.50969696039999,"elevation_ft":600,"type":"medium_airport","iso_country":"CA","municipality":"Kelsey","iata_code":"KES","scheduled_service":"no"},{"icao":"CZFA","name":"Faro Airport","latitude":62.20750045776367,"longitude":-133.37600708007812,"elevation_ft":2351,"type":"medium_airport","iso_country":"CA","municipality":"Faro","iata_code":"ZFA","scheduled_service":"no"},{"icao":"CZGF","name":"Grand Forks Airport","latitude":49.015598,"longitude":-118.431,"elevation_ft":1720,"type":"medium_airport","iso_country":"CA","municipality":"Grand Forks","iata_code":"ZGF","scheduled_service":"no"},{"icao":"CZJG","name":"Jenpeg Airport","latitude":54.51890182495117,"longitude":-98.04609680175781,"elevation_ft":729,"type":"medium_airport","iso_country":"CA","municipality":"Jenpeg","iata_code":"ZJG","scheduled_service":"no"},{"icao":"CZJN","name":"Swan River Airport","latitude":52.120602,"longitude":-101.236,"elevation_ft":1100,"type":"medium_airport","iso_country":"CA","municipality":"Swan River","iata_code":"ZJN","scheduled_service":"no"},{"icao":"CZLQ","name":"Thicket Portage Airport","latitude":55.31890106201172,"longitude":-97.70780181884766,"elevation_ft":678,"type":"medium_airport","iso_country":"CA","municipality":"Thicket Portage","iata_code":"YTD","scheduled_service":"no"},{"icao":"CZMN","name":"Pikwitonei Airport","latitude":55.58890151977539,"longitude":-97.16419982910156,"elevation_ft":630,"type":"medium_airport","iso_country":"CA","municipality":"Pikwitonei","iata_code":"PIW","scheduled_service":"no"},{"icao":"CZMT","name":"Masset Airport","latitude":54.0275,"longitude":-132.125,"elevation_ft":25,"type":"medium_airport","iso_country":"CA","municipality":"Masset","iata_code":"ZMT","scheduled_service":"yes"},{"icao":"CZPC","name":"Pincher Creek Airport","latitude":49.520429,"longitude":-113.997002,"elevation_ft":3903,"type":"medium_airport","iso_country":"CA","municipality":"Pincher Creek","iata_code":"WPC","scheduled_service":"no"},{"icao":"CZSJ","name":"Sandy Lake Airport","latitude":53.06420135498047,"longitude":-93.34439849853516,"elevation_ft":951,"type":"medium_airport","iso_country":"CA","municipality":"Sandy Lake","iata_code":"ZSJ","scheduled_service":"yes"},{"icao":"CZST","name":"Stewart Airport","latitude":55.935410448,"longitude":-129.982434511,"elevation_ft":24,"type":"medium_airport","iso_country":"CA","municipality":"Stewart","iata_code":"ZST","scheduled_service":"no"},{"icao":"CZUC","name":"Ignace Municipal Airport","latitude":49.428204,"longitude":-91.720418,"elevation_ft":1435,"type":"medium_airport","iso_country":"CA","municipality":"Ignace","iata_code":"ZUC","scheduled_service":"no"},{"icao":"DAAB","name":"Blida Airport","latitude":36.503601,"longitude":2.81417,"elevation_ft":535,"type":"medium_airport","iso_country":"DZ","municipality":"Blida","iata_code":null,"scheduled_service":"no"},{"icao":"DAAD","name":"Bou Saada Airport","latitude":35.3325,"longitude":4.20639,"elevation_ft":1506,"type":"medium_airport","iso_country":"DZ","municipality":"Ouled Sidi Brahim","iata_code":"BUJ","scheduled_service":"no"},{"icao":"DAAE","name":"Soummam\u2013Abane Ramdane Airport","latitude":36.712547,"longitude":5.069909,"elevation_ft":20,"type":"large_airport","iso_country":"DZ","municipality":"B\u00e9ja\u00efa","iata_code":"BJA","scheduled_service":"yes"},{"icao":"DAAG","name":"Houari Boumediene Airport","latitude":36.693886,"longitude":3.214531,"elevation_ft":82,"type":"large_airport","iso_country":"DZ","municipality":"Algiers","iata_code":"ALG","scheduled_service":"yes"},{"icao":"DAAJ","name":"Tiska Djanet Airport","latitude":24.285448,"longitude":9.463652,"elevation_ft":3176,"type":"large_airport","iso_country":"DZ","municipality":"Djanet","iata_code":"DJG","scheduled_service":"yes"},{"icao":"DAAK","name":"Boufarik Air Base","latitude":36.545799,"longitude":2.87611,"elevation_ft":335,"type":"medium_airport","iso_country":"DZ","municipality":"Boufarik","iata_code":null,"scheduled_service":"no"},{"icao":"DAAP","name":"Illizi Takhamalt Airport","latitude":26.723499,"longitude":8.62265,"elevation_ft":1778,"type":"medium_airport","iso_country":"DZ","municipality":"Illizi","iata_code":"VVZ","scheduled_service":"yes"},{"icao":"DAAS","name":"Ain Arnat Airport","latitude":36.178488,"longitude":5.329909,"elevation_ft":3360,"type":"medium_airport","iso_country":"DZ","municipality":"S\u00e9tif","iata_code":"QSF","scheduled_service":"yes"},{"icao":"DAAT","name":"Aguenar \u2013 Hadj Bey Akhamok Airport","latitude":22.810992,"longitude":5.450832,"elevation_ft":4518,"type":"large_airport","iso_country":"DZ","municipality":"Tamanrasset","iata_code":"TMR","scheduled_service":"yes"},{"icao":"DAAV","name":"Jijel Ferhat Abbas Airport","latitude":36.794125,"longitude":5.873652,"elevation_ft":36,"type":"large_airport","iso_country":"DZ","municipality":"Tahir","iata_code":"GJL","scheduled_service":"yes"},{"icao":"DAAY","name":"Mecheria Airport","latitude":33.535900116,"longitude":-0.242353007197,"elevation_ft":3855,"type":"medium_airport","iso_country":"DZ","municipality":"Mecheria","iata_code":"MZW","scheduled_service":"no"},{"icao":"DAAZ","name":"Relizane Airport","latitude":35.752955,"longitude":0.625877,"elevation_ft":282,"type":"medium_airport","iso_country":"DZ","municipality":"Relizane","iata_code":null,"scheduled_service":"no"},{"icao":"DABB","name":"Annaba Rabah Bitat Airport","latitude":36.826781,"longitude":7.81334,"elevation_ft":16,"type":"large_airport","iso_country":"DZ","municipality":"Annaba","iata_code":"AAE","scheduled_service":"yes"},{"icao":"DABC","name":"Mohamed Boudiaf International Airport","latitude":36.276001,"longitude":6.62039,"elevation_ft":2265,"type":"large_airport","iso_country":"DZ","municipality":"Constantine","iata_code":"CZL","scheduled_service":"yes"},{"icao":"DABS","name":"Cheikh Larbi T\u00e9bessi Airport","latitude":35.4315986633,"longitude":8.12071990967,"elevation_ft":2661,"type":"medium_airport","iso_country":"DZ","municipality":"T\u00e9bessi","iata_code":"TEE","scheduled_service":"yes"},{"icao":"DABT","name":"Batna Mostefa Ben Boulaid Airport","latitude":35.752102,"longitude":6.30859,"elevation_ft":2697,"type":"large_airport","iso_country":"DZ","municipality":"Batna","iata_code":"BLJ","scheduled_service":"yes"},{"icao":"DAFH","name":"Hassi R'Mel Airport","latitude":32.930401,"longitude":3.31154,"elevation_ft":2540,"type":"medium_airport","iso_country":"DZ","municipality":"Hassi R'Mel","iata_code":"HRM","scheduled_service":"no"},{"icao":"DAOB","name":"Abdelhafid Boussouf Bou Chekif Airport","latitude":35.341099,"longitude":1.46315,"elevation_ft":3245,"type":"medium_airport","iso_country":"DZ","municipality":"Tiaret","iata_code":"TID","scheduled_service":"no"},{"icao":"DAOF","name":"Tindouf Airport","latitude":27.7003993988,"longitude":-8.167099952700001,"elevation_ft":1453,"type":"medium_airport","iso_country":"DZ","municipality":"Tindouf","iata_code":"TIN","scheduled_service":"yes"},{"icao":"DAOI","name":"Chlef Aboubakr Belkaid International Airport","latitude":36.216614,"longitude":1.341114,"elevation_ft":463,"type":"large_airport","iso_country":"DZ","municipality":"Chlef","iata_code":"CFK","scheduled_service":"yes"},{"icao":"DAOL","name":"Oran Tafraoui Airport","latitude":35.5424,"longitude":-0.532278,"elevation_ft":367,"type":"medium_airport","iso_country":"DZ","municipality":"Tafraoui","iata_code":"TAF","scheduled_service":"no"},{"icao":"DAON","name":"Zenata \u2013 Messali El Hadj Airport","latitude":35.012732,"longitude":-1.457117,"elevation_ft":814,"type":"large_airport","iso_country":"DZ","municipality":"Zenata","iata_code":"TLM","scheduled_service":"yes"},{"icao":"DAOO","name":"Oran Es-S\u00e9nia (Ahmed Ben Bella) International Airport","latitude":35.620648,"longitude":-0.622486,"elevation_ft":295,"type":"large_airport","iso_country":"DZ","municipality":"Es-S\u00e9nia","iata_code":"ORN","scheduled_service":"yes"},{"icao":"DAOR","name":"B\u00e9char Boudghene Ben Ali Lotfi Airport","latitude":31.645700454711914,"longitude":-2.269860029220581,"elevation_ft":2661,"type":"medium_airport","iso_country":"DZ","municipality":"B\u00e9char","iata_code":"CBH","scheduled_service":"yes"},{"icao":"DAOV","name":"Ghriss Airport","latitude":35.207699,"longitude":0.147142,"elevation_ft":1686,"type":"medium_airport","iso_country":"DZ","municipality":"Ghriss","iata_code":"MUW","scheduled_service":"no"},{"icao":"DATM","name":"Bordj Badji Mokhtar Airport","latitude":21.3778,"longitude":0.92698,"elevation_ft":1303,"type":"medium_airport","iso_country":"DZ","municipality":"Bordj Badji Mokhtar","iata_code":"BMW","scheduled_service":"yes"},{"icao":"DAUA","name":"Touat-Cheikh Sidi Mohamed Belkebir Airport","latitude":27.837601,"longitude":-0.186414,"elevation_ft":919,"type":"medium_airport","iso_country":"DZ","municipality":"Adrar","iata_code":"AZR","scheduled_service":"yes"},{"icao":"DAUB","name":"Biskra - Mohamed Khider Airport","latitude":34.79318,"longitude":5.738899,"elevation_ft":289,"type":"large_airport","iso_country":"DZ","municipality":"Biskra","iata_code":"BSK","scheduled_service":"yes"},{"icao":"DAUE","name":"El Golea Airport","latitude":30.580732,"longitude":2.861595,"elevation_ft":1306,"type":"medium_airport","iso_country":"DZ","municipality":"El Menia","iata_code":"ELG","scheduled_service":"yes"},{"icao":"DAUG","name":"Noum\u00e9rat - Moufdi Zakaria Airport","latitude":32.384102,"longitude":3.79411,"elevation_ft":1512,"type":"medium_airport","iso_country":"DZ","municipality":"El Atteuf","iata_code":"GHA","scheduled_service":"yes"},{"icao":"DAUH","name":"Hassi Messaoud-Oued Irara Krim Belkacem Airport","latitude":31.673,"longitude":6.14044,"elevation_ft":463,"type":"medium_airport","iso_country":"DZ","municipality":"Hassi Messaoud","iata_code":"HME","scheduled_service":"yes"},{"icao":"DAUI","name":"In Salah Airport","latitude":27.250999,"longitude":2.51202,"elevation_ft":896,"type":"medium_airport","iso_country":"DZ","municipality":"In Salah","iata_code":"INZ","scheduled_service":"yes"},{"icao":"DAUK","name":"Touggourt Sidi Madhi Airport","latitude":33.067799,"longitude":6.08867,"elevation_ft":279,"type":"medium_airport","iso_country":"DZ","municipality":"Touggourt","iata_code":"TGR","scheduled_service":"yes"},{"icao":"DAUL","name":"Laghouat - Molay Ahmed Medeghri Airport","latitude":33.7644,"longitude":2.92834,"elevation_ft":2510,"type":"medium_airport","iso_country":"DZ","municipality":"Laghouat","iata_code":"LOO","scheduled_service":"no"},{"icao":"DAUO","name":"Guemar Airport - \u0645\u0637\u0627\u0631 \u0642\u0645\u0627\u0631 \u0628\u0627\u0644\u0648\u0627\u062f\u064a","latitude":33.511398,"longitude":6.77679,"elevation_ft":203,"type":"medium_airport","iso_country":"DZ","municipality":"Guemar","iata_code":"ELU","scheduled_service":"yes"},{"icao":"DAUT","name":"Timimoun Airport","latitude":29.237101,"longitude":0.276033,"elevation_ft":1027,"type":"medium_airport","iso_country":"DZ","municipality":"Timimoun","iata_code":"TMX","scheduled_service":"yes"},{"icao":"DAUU","name":"Ain Beida Airport","latitude":31.9172,"longitude":5.41278,"elevation_ft":492,"type":"medium_airport","iso_country":"DZ","municipality":"Ouargla","iata_code":"OGX","scheduled_service":"yes"},{"icao":"DAUZ","name":"Zarzaitine - In Am\u00e9nas Airport","latitude":28.0515,"longitude":9.64291,"elevation_ft":1847,"type":"medium_airport","iso_country":"DZ","municipality":"In Am\u00e9nas","iata_code":"IAM","scheduled_service":"yes"},{"icao":"DBBB","name":"Cotonou Cadjehoun International Airport","latitude":6.35723,"longitude":2.38435,"elevation_ft":19,"type":"large_airport","iso_country":"BJ","municipality":"Cotonou","iata_code":"COO","scheduled_service":"yes"},{"icao":"DFFD","name":"Ouagadougou Thomas Sankara International Airport","latitude":12.3532,"longitude":-1.51242,"elevation_ft":1037,"type":"large_airport","iso_country":"BF","municipality":"Ouagadougou","iata_code":"OUA","scheduled_service":"yes"},{"icao":"DFOO","name":"Bobo Dioulasso Airport","latitude":11.1601,"longitude":-4.33097,"elevation_ft":1511,"type":"large_airport","iso_country":"BF","municipality":"Bobo Dioulasso","iata_code":"BOY","scheduled_service":"yes"},{"icao":"DGAA","name":"Kotoka International Airport","latitude":5.605189800262451,"longitude":-0.16678600013256073,"elevation_ft":205,"type":"large_airport","iso_country":"GH","municipality":"Accra","iata_code":"ACC","scheduled_service":"yes"},{"icao":"DGAH","name":"Ho Airport","latitude":6.579691,"longitude":0.532547,"elevation_ft":356,"type":"medium_airport","iso_country":"GH","municipality":"Ho","iata_code":null,"scheduled_service":"yes"},{"icao":"DGLE","name":"Yakubu Tali International Airport","latitude":9.553909,"longitude":-0.86606,"elevation_ft":553,"type":"large_airport","iso_country":"GH","municipality":"Tamale","iata_code":"TML","scheduled_service":"yes"},{"icao":"DGSI","name":"Prempeh I International Airport","latitude":6.71456,"longitude":-1.59082,"elevation_ft":942,"type":"large_airport","iso_country":"GH","municipality":"Kumasi","iata_code":"KMS","scheduled_service":"yes"},{"icao":"DGSN","name":"Sunyani Airport","latitude":7.36183,"longitude":-2.32876,"elevation_ft":1014,"type":"medium_airport","iso_country":"GH","municipality":"Sunyani","iata_code":"NYI","scheduled_service":"yes"},{"icao":"DGTK","name":"Takoradi Airport","latitude":4.896059989929199,"longitude":-1.7747600078582764,"elevation_ft":21,"type":"medium_airport","iso_country":"GH","municipality":"Sekondi-Takoradi","iata_code":"TKD","scheduled_service":"yes"},{"icao":"DIAP","name":"F\u00e9lix-Houphou\u00ebt-Boigny International Airport","latitude":5.26139,"longitude":-3.92629,"elevation_ft":21,"type":"large_airport","iso_country":"CI","municipality":"Abidjan","iata_code":"ABJ","scheduled_service":"yes"},{"icao":"DIBK","name":"Bouak\u00e9 Airport","latitude":7.7388,"longitude":-5.07367,"elevation_ft":1230,"type":"medium_airport","iso_country":"CI","municipality":"Bouak\u00e9","iata_code":"BYK","scheduled_service":"yes"},{"icao":"DIDL","name":"Daloa Airport","latitude":6.79281,"longitude":-6.47319,"elevation_ft":823,"type":"medium_airport","iso_country":"CI","municipality":null,"iata_code":"DJO","scheduled_service":"no"},{"icao":"DIKO","name":"Korhogo Airport","latitude":9.38718,"longitude":-5.55666,"elevation_ft":1214,"type":"medium_airport","iso_country":"CI","municipality":"Korhogo","iata_code":"HGO","scheduled_service":"yes"},{"icao":"DIMN","name":"Man Airport","latitude":7.27207,"longitude":-7.58736,"elevation_ft":1089,"type":"medium_airport","iso_country":"CI","municipality":null,"iata_code":"MJC","scheduled_service":"no"},{"icao":"DISP","name":"San Pedro Airport","latitude":4.74672,"longitude":-6.66082,"elevation_ft":26,"type":"medium_airport","iso_country":"CI","municipality":null,"iata_code":"SPY","scheduled_service":"yes"},{"icao":"DIYO","name":"Yamoussoukro International Airport","latitude":6.90317,"longitude":-5.36558,"elevation_ft":699,"type":"large_airport","iso_country":"CI","municipality":"Yamoussoukro","iata_code":"ASK","scheduled_service":"no"},{"icao":"DNKT","name":"Umaru Musa Yar'adua Airport","latitude":13.0078,"longitude":7.66045,"elevation_ft":1660,"type":"medium_airport","iso_country":"NG","municipality":"Katsina","iata_code":"DKA","scheduled_service":"yes"},{"icao":"DNAA","name":"Nnamdi Azikiwe International Airport","latitude":9.00679,"longitude":7.26317,"elevation_ft":1123,"type":"large_airport","iso_country":"NG","municipality":"Abuja","iata_code":"ABV","scheduled_service":"yes"},{"icao":"DNAI","name":"Akwa Ibom International Airport","latitude":4.8725,"longitude":8.093,"elevation_ft":170,"type":"medium_airport","iso_country":"NG","municipality":"Uyo","iata_code":"QUO","scheduled_service":"yes"},{"icao":"DNAK","name":"Akure Airport","latitude":7.246739864349365,"longitude":5.3010101318359375,"elevation_ft":1100,"type":"medium_airport","iso_country":"NG","municipality":"Akure","iata_code":"AKR","scheduled_service":"yes"},{"icao":"DNAS","name":"Asaba International Airport","latitude":6.204167,"longitude":6.665278,"elevation_ft":305,"type":"large_airport","iso_country":"NG","municipality":"Asaba","iata_code":"ABB","scheduled_service":"yes"},{"icao":"DNBC","name":"Sir Abubakar Tafawa Balewa Bauchi State International Airport","latitude":10.482833,"longitude":9.744,"elevation_ft":1965,"type":"large_airport","iso_country":"NG","municipality":"Bauchi","iata_code":"BCU","scheduled_service":"yes"},{"icao":"DNBE","name":"Benin Airport","latitude":6.316979885101318,"longitude":5.5995001792907715,"elevation_ft":258,"type":"medium_airport","iso_country":"NG","municipality":"Benin","iata_code":"BNI","scheduled_service":"yes"},{"icao":"DNBY","name":"Bayelsa International Airport","latitude":4.95759,"longitude":6.203327,"elevation_ft":67,"type":"medium_airport","iso_country":"NG","municipality":"Yenagoa","iata_code":null,"scheduled_service":"yes"},{"icao":"DNCA","name":"Margaret Ekpo International Airport","latitude":4.976019859313965,"longitude":8.347200393676758,"elevation_ft":210,"type":"medium_airport","iso_country":"NG","municipality":"Calabar","iata_code":"CBQ","scheduled_service":"yes"},{"icao":"DNEN","name":"Akanu Ibiam International Airport","latitude":6.473718,"longitude":7.560463,"elevation_ft":466,"type":"large_airport","iso_country":"NG","municipality":"Enegu","iata_code":"ENU","scheduled_service":"yes"},{"icao":"DNGO","name":"Gombe Lawanti International Airport","latitude":10.298889,"longitude":10.9,"elevation_ft":1590,"type":"medium_airport","iso_country":"NG","municipality":"Gombe","iata_code":"GMO","scheduled_service":"yes"},{"icao":"DNGU","name":"Gusau Airport","latitude":12.17286,"longitude":6.696136,"elevation_ft":1520,"type":"medium_airport","iso_country":"NG","municipality":"Gusau","iata_code":null,"scheduled_service":"no"},{"icao":"DNIB","name":"Ibadan Airport","latitude":7.362460136413574,"longitude":3.97832989692688,"elevation_ft":725,"type":"medium_airport","iso_country":"NG","municipality":"Ibadan","iata_code":"IBA","scheduled_service":"yes"},{"icao":"DNIL","name":"General Tunde Idiagbon International Airport","latitude":8.44021,"longitude":4.49392,"elevation_ft":1126,"type":"large_airport","iso_country":"NG","municipality":"Ilorin/Ogbomosho","iata_code":"ILR","scheduled_service":"yes"},{"icao":"DNIM","name":"Sam Mbakwe International Cargo Airport","latitude":5.42706,"longitude":7.20603,"elevation_ft":373,"type":"medium_airport","iso_country":"NG","municipality":"Owerri","iata_code":"QOW","scheduled_service":"yes"},{"icao":"DNJO","name":"Yakubu Gowon Airport","latitude":9.639829635620117,"longitude":8.869050025939941,"elevation_ft":4232,"type":"medium_airport","iso_country":"NG","municipality":"Jos","iata_code":"JOS","scheduled_service":"yes"},{"icao":"DNKA","name":"Kaduna International Airport","latitude":10.696,"longitude":7.32011,"elevation_ft":2073,"type":"large_airport","iso_country":"NG","municipality":"Kaduna","iata_code":"KAD","scheduled_service":"yes"},{"icao":"DNKN","name":"Mallam Aminu Kano International Airport","latitude":12.045613,"longitude":8.523566,"elevation_ft":1562,"type":"large_airport","iso_country":"NG","municipality":"Kano","iata_code":"KAN","scheduled_service":"yes"},{"icao":"DNMA","name":"Maiduguri International Airport","latitude":11.854163,"longitude":13.080702,"elevation_ft":1099,"type":"large_airport","iso_country":"NG","municipality":"Maiduguri","iata_code":"MIU","scheduled_service":"yes"},{"icao":"DNMK","name":"Makurdi Airport","latitude":7.70388,"longitude":8.61394,"elevation_ft":371,"type":"medium_airport","iso_country":"NG","municipality":"Makurdi","iata_code":"MDI","scheduled_service":"yes"},{"icao":"DNMM","name":"Murtala Muhammed International Airport","latitude":6.57737,"longitude":3.32116,"elevation_ft":135,"type":"large_airport","iso_country":"NG","municipality":"Lagos","iata_code":"LOS","scheduled_service":"yes"},{"icao":"DNMN","name":"Minna Airport","latitude":9.652170181274414,"longitude":6.462259769439697,"elevation_ft":834,"type":"medium_airport","iso_country":"NG","municipality":"Minna","iata_code":"MXJ","scheduled_service":"no"},{"icao":"DNPO","name":"Port Harcourt International Airport","latitude":5.01549,"longitude":6.94959,"elevation_ft":87,"type":"large_airport","iso_country":"NG","municipality":"Port Harcourt","iata_code":"PHC","scheduled_service":"yes"},{"icao":"DNSO","name":"Sadiq Abubakar III International Airport","latitude":12.915729,"longitude":5.207547,"elevation_ft":1010,"type":"large_airport","iso_country":"NG","municipality":"Sokoto","iata_code":"SKO","scheduled_service":"yes"},{"icao":"DNSU","name":"Warri Airport","latitude":5.59821,"longitude":5.8187,"elevation_ft":242,"type":"medium_airport","iso_country":"NG","municipality":"Okpe","iata_code":"QRW","scheduled_service":"yes"},{"icao":"DNYO","name":"Yola Airport","latitude":9.257550239562988,"longitude":12.430399894714355,"elevation_ft":599,"type":"medium_airport","iso_country":"NG","municipality":"Yola","iata_code":"YOL","scheduled_service":"yes"},{"icao":"DNZA","name":"Zaria Airport","latitude":11.1302,"longitude":7.68581,"elevation_ft":2170,"type":"medium_airport","iso_country":"NG","municipality":"Zaria","iata_code":"ZAR","scheduled_service":"no"},{"icao":"DRRM","name":"Maradi Airport","latitude":13.5025,"longitude":7.12675,"elevation_ft":1240,"type":"medium_airport","iso_country":"NE","municipality":"Maradi","iata_code":"MFQ","scheduled_service":"no"},{"icao":"DRRN","name":"Diori Hamani International Airport","latitude":13.4815,"longitude":2.18361,"elevation_ft":732,"type":"large_airport","iso_country":"NE","municipality":"Niamey","iata_code":"NIM","scheduled_service":"yes"},{"icao":"DRRT","name":"Tahoua Airport","latitude":14.8757,"longitude":5.26536,"elevation_ft":1266,"type":"medium_airport","iso_country":"NE","municipality":"Tahoua","iata_code":"THZ","scheduled_service":"no"},{"icao":"DRZA","name":"Mano Dayak International Airport","latitude":16.966,"longitude":8.00011,"elevation_ft":1657,"type":"medium_airport","iso_country":"NE","municipality":"Agadez","iata_code":"AJY","scheduled_service":"no"},{"icao":"DRZR","name":"Zinder Airport","latitude":13.779000282287598,"longitude":8.983759880065918,"elevation_ft":1516,"type":"medium_airport","iso_country":"NE","municipality":"Zinder","iata_code":"ZND","scheduled_service":"yes"},{"icao":"DTKA","name":"Tabarka-A\u00efn Draham International Airport","latitude":36.98,"longitude":8.87694,"elevation_ft":230,"type":"medium_airport","iso_country":"TN","municipality":"Tabarka","iata_code":"TBJ","scheduled_service":"yes"},{"icao":"DTMB","name":"Monastir Habib Bourguiba International Airport","latitude":35.75809860229492,"longitude":10.75469970703125,"elevation_ft":9,"type":"medium_airport","iso_country":"TN","municipality":"Monastir","iata_code":"MIR","scheduled_service":"yes"},{"icao":"DTNH","name":"Enfidha - Hammamet International Airport","latitude":36.075833,"longitude":10.438611,"elevation_ft":21,"type":"medium_airport","iso_country":"TN","municipality":"Enfidha","iata_code":"NBE","scheduled_service":"yes"},{"icao":"DTTA","name":"Tunis Carthage International Airport","latitude":36.851002,"longitude":10.2272,"elevation_ft":22,"type":"large_airport","iso_country":"TN","municipality":"Tunis","iata_code":"TUN","scheduled_service":"yes"},{"icao":"DTTB","name":"Bizerte Sidi Ahmed Air Base","latitude":37.242356,"longitude":9.787016,"elevation_ft":20,"type":"medium_airport","iso_country":"TN","municipality":"Borj Challouf","iata_code":null,"scheduled_service":"no"},{"icao":"DTTD","name":"Remada Air Base","latitude":32.306198,"longitude":10.3821,"elevation_ft":1004,"type":"medium_airport","iso_country":"TN","municipality":"Remada","iata_code":null,"scheduled_service":"no"},